%time,field.x,field.y,field.theta
1756447772628441782,2.7077804421719387,-2.9768792983910584,1.4495218172173097
1756447772654335144,2.7152264119563188,-2.965818769578232,-1.8142438840120825
1756447772681877724,2.7152264119563188,-2.965818769578232,1.4495218172173097
1756447772706089369,2.700334472387558,-2.987939827203885,-1.7967905914921403
1756447772733975102,2.700334472387558,-2.987939827203885,1.4146152321774252
1756447772759071153,2.700334472387558,-2.987939827203885,-1.7967905914921403
1756447772785050133,2.700334472387558,-2.987939827203885,1.4320685246973675
1756447772813397932,2.700334472387558,-2.987939827203885,-1.7967905914921403
1756447772839782297,2.7039490314160037,-3.006446325801092,1.4320685246973675
1756447772865655817,2.7077804421719387,-2.9768792983910584,-1.8142438840120825
1756447772892824996,2.7077804421719387,-2.9768792983910584,1.4320685246973675
1756447772922332387,2.7077804421719387,-2.9768792983910584,-1.8142438840120825
1756447772954820437,2.7077804421719387,-2.9768792983910584,1.4146152321774252
1756447772987721005,2.7012331234061153,-2.9871651414050926,-1.7960421326163853
1756447773022301729,2.7012331234061153,-2.9871651414050926,1.4502702760930646
1756447773058666417,2.7012331234061153,-2.9871651414050926,-1.7960421326163853
1756447773090905728,2.7012331234061153,-2.9871651414050926,1.4502702760930646
1756447773123503208,2.7012331234061153,-2.9871651414050926,-1.7960421326163853
1756447773159314723,2.7012331234061153,-2.9871651414050926,1.4328169835731224
1756447773188710851,2.7012331234061153,-2.9871651414050926,-1.7960421326163853
1756447773222127606,2.7012331234061153,-2.9871651414050926,1.4328169835731224
1756447773255335555,2.7012331234061153,-2.9871651414050926,-1.7785888400964396
1756447773284030483,2.7012331234061153,-2.9871651414050926,1.4502702760930646
1756447773319417814,2.7012331234061153,-2.9871651414050926,-1.7436822550565552
1756447773357487288,2.7012331234061153,-2.9871651414050926,1.4677235686130103
1756447773425689999,2.7012331234061153,-2.9871651414050926,-1.7611355475764974
1756447773472955172,2.7012331234061153,-2.9871651414050926,1.4328169835731224
1756447773503496370,2.708776448481381,-2.9781161825832534,-1.7631356113891137
1756447773529301472,2.7013166411202594,-2.9891673833227306,1.4133636272405639
1756447773559656706,2.7013166411202594,-2.9891673833227306,-1.7980421964290016
1756447773600113148,2.7123678418597366,-2.9966271906838524,1.3784570422006759
1756447773633652983,2.7234190425992137,-3.0040869980449743,-1.8154954889489439
1756447773660809955,2.7013166411202594,-2.9891673833227306,1.395910334720618
1756447773690339082,2.7123678418597366,-2.9966271906838524,-1.8504020739888318
1756447773713271059,2.7013166411202594,-2.9891673833227306,1.395910334720618
1756447773741826839,2.7013166411202594,-2.9891673833227306,-1.8504020739888318
1756447773767615029,2.7013166411202594,-2.9891673833227306,1.3784570422006759
1756447773793536195,2.693856833759137,-3.0002185840622073,-1.867855366508774
1756447773818614623,2.7013166411202594,-2.9891673833227306,1.3784570422006759
1756447773846202061,2.7123678418597366,-2.9966271906838524,-1.8853086590287162
1756447773869204663,2.7013166411202594,-2.9891673833227306,1.3784570422006759
1756447773896083843,2.7013166411202594,-2.9891673833227306,-1.8853086590287162
1756447773915672623,2.7013166411202594,-2.9891673833227306,1.395910334720618
1756447773942266451,2.7123678418597366,-2.9966271906838524,-1.867855366508774
1756447773968333904,2.7123678418597366,-2.9966271906838524,1.395910334720618
1756447773996060509,2.713125627950626,-2.996341872589853,-1.8499568559492339
1756447774017690692,2.713125627950626,-2.996341872589853,1.4138088452801618
1756447774042294852,2.705670741522608,-3.00739639347475,-1.832503563429288
1756447774068275492,2.705670741522608,-3.00739639347475,1.4138088452801618
1756447774095856889,2.713125627950626,-2.996341872589853,-1.815050270909346
1756447774120547963,2.702071107065729,-2.9888869861618352,1.431262137800104
1756447774148047915,2.713125627950626,-2.996341872589853,-1.815050270909346
1756447774177127029,2.7095259934937466,-2.977832465276938,1.431262137800104
1756447774201717890,2.713125627950626,-2.996341872589853,-1.815050270909346
1756447774222950986,2.713125627950626,-2.996341872589853,1.396355552760216
1756447774251818245,2.713125627950626,-2.996341872589853,-1.815050270909346
1756447774277880118,2.724180148835523,-3.0037967590178707,1.3439956752003859
1756447774303644962,2.7205805143786437,-2.985287351704956,-1.7975969783894037
1756447774327417820,2.713125627950626,-2.996341872589853,1.3789022602402738
1756447774351664277,2.702071107065729,-2.9888869861618352,-1.832503563429288
1756447774379107933,2.713125627950626,-2.996341872589853,1.396355552760216
1756447774409705392,2.724180148835523,-3.0037967590178707,-1.867410148469176
1756447774430483803,2.702071107065729,-2.9888869861618352,1.3789022602402738
1756447774456355031,2.7095259934937466,-2.977832465276938,-1.8499568559492339
1756447774479409154,2.702071107065729,-2.9888869861618352,1.3789022602402738
1756447774510807647,2.70290430130517,-2.986436617994337,-1.8660673808788815
1756447774536853465,2.7139688224011573,-2.993876654053773,1.3802450278305685
1756447774564826494,2.7139688224011573,-2.993876654053773,-1.8660673808788815
1756447774589504540,2.710344337364606,-2.975372096898349,1.3802450278305685
1756447774613041953,2.70290430130517,-2.986436617994337,-1.8660673808788815
1756447774638801982,2.70290430130517,-2.986436617994337,1.3976983203505107
1756447774660460826,2.7139688224011573,-2.993876654053773,-1.9184272584387116
1756447774686283868,2.7139688224011573,-2.993876654053773,1.3802450278305685
1756447774711978133,2.70290430130517,-2.986436617994337,-1.9009739659187694
1756447774735562649,2.70290430130517,-2.986436617994337,1.3627917353106263
1756447774759390289,2.7139688224011573,-2.993876654053773,-1.8835206733988237
1756447774790484959,2.7139688224011573,-2.993876654053773,1.3627917353106263
1756447774821963503,2.70290430130517,-2.986436617994337,-1.9184272584387116
1756447774848383171,2.7065287863417207,-3.004941175149761,1.3627917353106263
1756447774878701290,2.7214088584605935,-2.9828121329577852,-1.8660673808788815
1756447774903530362,2.7139688224011573,-2.993876654053773,1.3627917353106263
1756447774928759117,2.70290430130517,-2.986436617994337,-1.8311607958389935
1756447774951526422,2.7139688224011573,-2.993876654053773,1.3453384427906805
1756447774978415058,2.70290430130517,-2.986436617994337,-1.8486140883589393
1756447775008951354,2.7032524927505115,-2.9883912088171636,1.3273645277250736
1756447775037901671,2.7032524927505115,-2.9883912088171636,-1.8840412959444883
1756447775068826279,2.6921918466043695,-2.980945413327151,1.3273645277250736
1756447775094015456,2.7032524927505115,-2.9883912088171636,-1.8840412959444883
1756447775117844913,2.7032524927505115,-2.9883912088171636,1.3099112352051314
1756447775146958533,2.7217589343866666,-2.9847763581610347,-1.9189478809843763
1756447775167747300,2.7032524927505115,-2.9883912088171636,1.2750046501652434
1756447775195351948,2.7032524927505115,-2.9883912088171636,-1.9538544660242607
1756447775217571859,2.7032524927505115,-2.9883912088171636,1.2750046501652434
1756447775247422696,2.714313138896654,-2.995837004307177,-1.9713077585442065
1756447775271746097,2.7217589343866666,-2.9847763581610347,1.2750046501652434
1756447775295458813,2.714313138896654,-2.995837004307177,-1.9713077585442065
1756447775319499845,2.7032524927505115,-2.9883912088171636,1.2575513576453012
1756447775349170327,2.7032524927505115,-2.9883912088171636,-1.9887610510641487
1756447775370102698,2.7217589343866666,-2.9847763581610347,1.2575513576453012
1756447775396925481,2.7032524927505115,-2.9883912088171636,-1.9887610510641487
1756447775425553966,2.7032524927505115,-2.9883912088171636,1.2575513576453012
1756447775452817738,2.710698288240524,-2.9773305626710216,-2.006214343584091
1756447775479502716,2.7032524927505115,-2.9883912088171636,1.2226447726054133
1756447775502761705,2.7032331598439203,-2.9890036121664076,-2.0063883238370686
1756447775527423970,2.714292510401288,-2.996451331877737,1.2224707923524356
1756447775557343863,2.714292510401288,-2.996451331877737,-1.9714817387971841
1756447775590474841,2.7032331598439203,-2.9890036121664076,1.2399240848723814
1756447775621477343,2.7032331598439203,-2.9890036121664076,-1.9714817387971841
1756447775650115120,2.7032331598439203,-2.9890036121664076,1.2748306699122658
1756447775678565020,2.7032331598439203,-2.9890036121664076,-1.9365751537572962
1756447775708464926,2.7032331598439203,-2.9890036121664076,1.2399240848723814
1756447775728919852,2.7032331598439203,-2.9890036121664076,-1.9365751537572962
1756447775756936465,2.7032331598439203,-2.9890036121664076,1.2224707923524356
1756447775782906775,2.7032331598439203,-2.9890036121664076,-1.9540284462772384
1756447775807509848,2.6957854401325907,-3.0000629627237756,1.2224707923524356
1756447775826881346,2.710680879555249,-2.9779442616090397,-1.9365751537572962
1756447775855800831,2.710680879555249,-2.9779442616090397,1.2050174998324934
1756447775883042957,2.710680879555249,-2.9779442616090397,-1.9540284462772384
1756447775906803735,2.7032331598439203,-2.9890036121664076,1.2050174998324934
1756447775932595377,2.710680879555249,-2.9779442616090397,-1.9714817387971841
1756447775956977239,2.710680879555249,-2.9779442616090397,1.1701109147926054
1756447775985619416,2.7032331598439203,-2.9890036121664076,-1.9540284462772384
1756447776011486846,2.702510876508115,-2.9905022486242405,1.1342392042381206
1756447776038656310,2.702510876508115,-2.9905022486242405,-1.9200869867519543
1756447776060361447,2.6950524866056984,-3.0015544060476946,1.1516924967580628
1756447776089798714,2.7099692664105315,-2.9794500912007873,-1.9375402792718965
1756447776115278308,2.702510876508115,-2.9905022486242405,1.1167859117181749
1756447776143193528,2.702510876508115,-2.9905022486242405,-1.9375402792718965
1756447776164754345,2.702510876508115,-2.9905022486242405,1.1342392042381206
1756447776192076786,2.702510876508115,-2.9905022486242405,-1.9026336942320121
1756447776214642897,2.702510876508115,-2.9905022486242405,1.1167859117181749
1756447776242445423,2.702510876508115,-2.9905022486242405,-1.9200869867519543
1756447776263391749,2.702510876508115,-2.9905022486242405,1.0993326191982327
1756447776290785461,2.702510876508115,-2.9905022486242405,-1.9200869867519543
1756447776317932283,2.702510876508115,-2.9905022486242405,1.1342392042381206
1756447776339966815,2.6950524866056984,-3.0015544060476946,-1.9200869867519543
1756447776366819614,2.702510876508115,-2.9905022486242405,1.1167859117181749
1756447776394390991,2.702510876508115,-2.9905022486242405,-1.9375402792718965
1756447776421590745,2.702510876508115,-2.9905022486242405,1.1167859117181749
1756447776443492418,2.702510876508115,-2.9905022486242405,-1.9026336942320121
1756447776468541166,2.702510876508115,-2.9905022486242405,1.0818793266782905
1756447776495501168,2.706392066034734,-2.9889586237022048,-1.9191231296092326
1756447776521815133,2.706392066034734,-2.9889586237022048,1.0828431838210122
1756447776548140793,2.706392066034734,-2.9889586237022048,-1.954029714649117
1756447776575818895,2.706392066034734,-2.9889586237022048,1.1177497688608966
1756447776598962358,2.706392066034734,-2.9889586237022048,-1.954029714649117
1756447776627343614,2.713839799773426,-2.9778992825913244,1.1352030613808424
1756447776656930251,2.713839799773426,-2.9778992825913244,-1.954029714649117
1756447776684361914,2.706392066034734,-2.9889586237022048,1.1177497688608966
1756447776709794827,2.706392066034734,-2.9889586237022048,-1.9365764221291748
1756447776738865430,2.706392066034734,-2.9889586237022048,1.1352030613808424
1756447776764115300,2.713839799773426,-2.9778992825913244,-1.9191231296092326
1756447776791304553,2.713839799773426,-2.9778992825913244,1.1526563539007846
1756447776812692403,2.706392066034734,-2.9889586237022048,-1.954029714649117
1756447776839141868,2.706392066034734,-2.9889586237022048,1.1701096464207268
1756447776865757556,2.7174514071456146,-2.9964063574408977,-1.954029714649117
1756447776900656441,2.706392066034734,-2.9889586237022048,1.2050162314606148
1756447776926358797,2.6953327249238535,-2.9815108899635128,-1.954029714649117
1756447776952398033,2.6953327249238535,-2.9815108899635128,1.1701096464207268
1756447776979340584,2.7174514071456146,-2.9964063574408977,-1.954029714649117
1756447777009627987,2.7166824239891545,-2.996854818713482,1.1869025854031818
1756447777038498310,2.713083038615874,-2.978345362961538,-1.9546900681866077
1756447777065239792,2.713083038615874,-2.978345362961538,1.204355877923124
1756447777093456457,2.720538073805206,-2.967290942398926,-1.9372367756666655
1756447777122320002,2.7056280034265425,-2.98939978352415,1.1869025854031818
1756447777145447237,2.713083038615874,-2.978345362961538,-1.9546900681866077
1756447777165645016,2.7056280034265425,-2.98939978352415,1.1519960003632939
1756447777191619596,2.7056280034265425,-2.98939978352415,-1.9721433607065535
1756447777216159164,2.7056280034265425,-2.98939978352415,1.1345427078433516
1756447777244370579,2.7166824239891545,-2.996854818713482,-1.9721433607065535
1756447777266700212,2.7166824239891545,-2.996854818713482,1.1345427078433516
1756447777295397762,2.698172968237211,-3.000454204086762,-1.9372367756666655
1756447777327374171,2.713083038615874,-2.978345362961538,1.0996361228034637
1756447777358225448,2.7166824239891545,-2.996854818713482,-1.9372367756666655
1756447777388849106,2.7056280034265425,-2.98939978352415,1.0647295377635793
1756447777411180956,2.724137459178486,-2.98580039815087,-1.9197834831467233
1756447777436973000,2.7056280034265425,-2.98939978352415,1.0821828302835215
1756447777459777122,2.7056280034265425,-2.98939978352415,-1.9372367756666655
1756447777483514987,2.698172968237211,-3.000454204086762,1.0821828302835215
1756447777508538856,2.716266202838436,-2.9962587632481283,-1.954234472656264
1756447777531194544,2.701600569117758,-2.9703009512097984,1.1000917183338075
1756447777558484532,2.7052083869424988,-2.9888087651769317,-1.954234472656264
1756447777583632728,2.7052083869424988,-2.9888087651769317,1.1000917183338075
1756447777610565870,2.723716200909632,-2.985200947352191,-1.989141057696152
1756447777632101238,2.7052083869424988,-2.9888087651769317,1.1000917183338075
1756447777660931368,2.7052083869424988,-2.9888087651769317,-1.954234472656264
1756447777690794920,2.723716200909632,-2.985200947352191,1.0826384258138653
1756447777721282139,2.7052083869424988,-2.9888087651769317,-1.954234472656264
1756447777742677155,2.7201083830848916,-2.9666931333850575,1.1175450108537497
1756447777770523274,2.7052083869424988,-2.9888087651769317,-1.9716877651762097
1756447777793363101,2.701600569117758,-2.9703009512097984,1.1175450108537497
1756447777822776962,2.712658385013695,-2.9777509492809946,-1.954234472656264
1756447777850117150,2.7052083869424988,-2.9888087651769317,1.1524515958936377
1756447777877100241,2.701600569117758,-2.9703009512097984,-1.9367811801363217
1756447777900006753,2.7052083869424988,-2.9888087651769317,1.1524515958936377
1756447777925222330,2.716266202838436,-2.9962587632481283,-1.9367811801363217
1756447777945909233,2.7052083869424988,-2.9888087651769317,1.1349983033736954
1756447777970961818,2.716266202838436,-2.9962587632481283,-1.9367811801363217
1756447777997878524,2.7115192250712994,-2.9782271409969665,1.1344786705338095
1756447778024107835,2.7115192250712994,-2.9782271409969665,-1.9023942279363233
1756447778048341286,2.7040634820019025,-2.989281084136517,1.1693852555736939
1756447778077992015,2.715117425141453,-2.996736827205914,-1.9373008129762077
1756447778099567420,2.7040634820019025,-2.989281084136517,1.221745133133524
1756447778126846035,2.693009538862352,-2.98182534106712,-1.9023942279363233
1756447778153577955,2.7115192250712994,-2.9782271409969665,1.1693852555736939
1756447778182983620,2.715117425141453,-2.996736827205914,-1.9198475204562655
1756447778210297032,2.7040634820019025,-2.989281084136517,1.1693852555736939
1756447778238694708,2.696607738932505,-3.0003350272760674,-1.9198475204562655
1756447778268307771,2.7040634820019025,-2.989281084136517,1.1868385480936396
1756447778296751925,2.693009538862352,-2.98182534106712,-1.9373008129762077
1756447778325038450,2.693009538862352,-2.98182534106712,1.1693852555736939
1756447778358000821,2.72257316821085,-2.9856828840663634,-1.95475410549615
1756447778385091469,2.7040634820019025,-2.989281084136517,1.1693852555736939
1756447778411370009,2.7040634820019025,-2.989281084136517,-1.9198475204562655
1756447778438986488,2.7040634820019025,-2.989281084136517,1.1693852555736939
1756447778467833845,2.72257316821085,-2.9856828840663634,-1.9198475204562655
1756447778493936573,2.696352375183538,-2.9993715983667526,1.18706956902356
1756447778519216154,2.703805564361775,-2.988315933089499,-1.9370697920462874
1756447778544215024,2.6927498990845216,-2.9808627439112616,1.2045228615435022
1756447778570986105,2.703805564361775,-2.988315933089499,-1.9196164995263452
1756447778598840941,2.714861229639029,-2.995769122267736,1.2394294465833902
1756447778626603467,2.725916894916283,-3.003222311445973,-1.9370697920462874
1756447778652786912,2.714861229639029,-2.995769122267736,1.2568827391033324
1756447778678740360,2.703805564361775,-2.988315933089499,-1.9545230845662296
1756447778704832592,2.703805564361775,-2.988315933089499,1.2568827391033324
1756447778733262730,2.703805564361775,-2.988315933089499,-1.9719763770861753
1756447778759292326,2.6927498990845216,-2.9808627439112616,1.2568827391033324
1756447778782879937,2.703805564361775,-2.988315933089499,-1.9545230845662296
1756447778808704096,2.7112587535400126,-2.977260267812245,1.2219761540634444
1756447778833317673,2.714861229639029,-2.995769122267736,-1.9719763770861753
1756447778858607240,2.7112587535400126,-2.977260267812245,1.2045228615435022
1756447778888833525,2.714861229639029,-2.995769122267736,-1.9894296696061176
1756447778915452412,2.703805564361775,-2.988315933089499,1.2219761540634444
1756447778945171937,2.703805564361775,-2.988315933089499,-2.0068829621260598
1756447778967023972,2.703805564361775,-2.988315933089499,1.2219761540634444
1756447778993575143,2.7041710384766735,-2.9881600114028126,-2.0069861189109197
1756447779020124696,2.7041710384766735,-2.9881600114028126,1.2044197047586422
1756447779050144407,2.7041710384766735,-2.9881600114028126,-1.9895328263909775
1756447779078415633,2.7190796976876013,-2.9660502186600137,1.2218729972785844
1756447779106014344,2.7116253680821374,-2.977105115031413,-1.9720795338710353
1756447779132693559,2.722680264453537,-2.9845594446368766,1.2218729972785844
1756447779159459449,2.7116253680821374,-2.977105115031413,-1.9720795338710353
1756447779190489793,2.7041710384766735,-2.9881600114028126,1.2393262897985302
1756447779215967843,2.7116253680821374,-2.977105115031413,-2.0069861189109197
1756447779246425104,2.7041710384766735,-2.9881600114028126,1.2218729972785844
1756447779273284715,2.7041710384766735,-2.9881600114028126,-2.0069861189109197
1756447779303145771,2.715225934848073,-2.995614341008276,1.2044197047586422
1756447779333225615,2.715225934848073,-2.995614341008276,-2.05934599647075
1756447779360219105,2.7116253680821374,-2.977105115031413,1.2044197047586422
1756447779382854946,2.715225934848073,-2.995614341008276,-2.0418927039508077
1756447779407730218,2.7116253680821374,-2.977105115031413,1.1869664122387
1756447779430315682,2.715225934848073,-2.995614341008276,-2.0418927039508077
1756447779458344210,2.715225934848073,-2.995614341008276,1.1695131197187543
1756447779479240517,2.707771605242609,-3.006669237379675,-2.05934599647075
1756447779505035675,2.7031877127438952,-2.9882042775510937,1.1342139840592544
1756447779530138437,2.710646381381327,-2.977152308233082,-2.0597385470903653
1756447779563069379,2.7216983506993384,-2.984610976870514,1.1342139840592544
1756447779590183434,2.710646381381327,-2.977152308233082,-2.077191839610311
1756447779629711611,2.7031877127438952,-2.9882042775510937,1.1516672765791967
1756447779655651726,2.7031877127438952,-2.9882042775510937,-2.0946451321302533
1756447779682107968,2.7031877127438952,-2.9882042775510937,1.1167606915393087
1756447779706693949,2.7142396820619066,-2.995662946188525,-2.1120984246501955
1756447779733030976,2.695729044106464,-2.999256246869105,1.1167606915393087
1756447779762075338,2.7031877127438952,-2.9882042775510937,-2.077191839610311
1756447779793806871,2.714287833207305,-2.995566197740647,1.1168623989914082
1756447779823074605,2.703235105344275,-2.9881086532094314,-2.059636839638266
1756447779849538640,2.703235105344275,-2.9881086532094314,1.134315691511354
1756447779878871921,2.7217453777385208,-2.984513469877617,-2.094543424678154
1756447779906473579,2.703235105344275,-2.9881086532094314,1.1517689840312961
1756447779928256229,2.7217453777385208,-2.984513469877617,-2.111996717198096
1756447779954599436,2.7327981056015513,-2.9919710144088327,1.1517689840312961
1756447779977962418,2.703235105344275,-2.9881086532094314,-2.111996717198096
1756447780004566951,2.7131296239238263,-2.995464264142161,1.1691939678079812
1756447780025416362,2.7131296239238263,-2.995464264142161,-2.1294783184612953
1756447780052505878,2.705671766506763,-3.0065167808870488,1.1691939678079812
1756447780077370938,2.7020771071789382,-2.988006406725098,-2.094571733421411
1756447780106333024,2.7131296239238263,-2.995464264142161,1.186647260327927
1756447780129346967,2.7020771071789382,-2.988006406725098,-2.112025025941353
1756447780154128333,2.7020771071789382,-2.988006406725098,1.2041005528478692
1756447780176106718,2.720587481340889,-2.984411747397273,-2.094571733421411
1756447780202389618,2.7131296239238263,-2.995464264142161,1.2215538453678114
1756447780228975372,2.7131296239238263,-2.995464264142161,-2.094571733421411
1756447780252669016,2.7020771071789382,-2.988006406725098,1.2041005528478692
1756447780276859821,2.7131296239238263,-2.995464264142161,-2.094571733421411
1756447780305816106,2.7020771071789382,-2.988006406725098,1.186647260327927
1756447780329115397,2.7020771071789382,-2.988006406725098,-2.0771184409014687
1756447780354280808,2.7020771071789382,-2.988006406725098,1.186647260327927
1756447780377721856,2.709534964596001,-2.97695388998021,-2.0771184409014687
1756447780406032395,2.709534964596001,-2.97695388998021,1.2041005528478692
1756447780433958003,2.720587481340889,-2.984411747397273,-2.0771184409014687
1756447780456352539,2.720587481340889,-2.984411747397273,1.2041005528478692
1756447780484942598,2.7020771071789382,-2.988006406725098,-2.0771184409014687
1756447780515922825,2.7214613139216546,-2.9860473737431623,1.2039097238448235
1756447780547823393,2.710410220553496,-2.978587407321152,-2.0773092699045144
1756447780569301622,2.710410220553496,-2.978587407321152,1.2039097238448235
1756447780602888718,2.710410220553496,-2.978587407321152,-2.112215854944399
1756447780633230839,2.7178701869755058,-2.9675363139529933,1.2213630163647657
1756447780660665954,2.7029502541314856,-2.9896385006893103,-2.129669147464341
1756447780685677638,2.7104768594779602,-2.9783771556244365,1.2564730187202784
1756447780722389016,2.7104768594779602,-2.9783771556244365,-2.112012437628774
1756447780753275830,2.7104768594779602,-2.9783771556244365,1.2739263112402206
1756447780799284869,2.7104768594779602,-2.9783771556244365,-2.094559145108832
1756447780847882243,2.7104768594779602,-2.9783771556244365,1.2564730187202784
1756447780878705467,2.6994697544768784,-2.9708241665504636,-2.111910721532407
1756447780908576731,2.710502778108149,-2.978394634809475,1.2739263171548743
1756447780934700038,2.703045059889585,-2.989447245479438,-2.1294657242340627
1756447780957672913,2.703045059889585,-2.989447245479438,1.3262861947147044
1756447780985784363,2.713165503745929,-2.9976738550702713,-2.130368640954103
1756447781017161199,2.702119631278892,-2.9902061603060734,1.3253832779946642
1756447781051366114,2.713165503745929,-2.9976738550702713,-2.130368640954103
1756447781080722140,2.70958732604309,-2.979160287839037,1.3253832779946642
1756447781114614328,2.70958732604309,-2.979160287839037,-2.1478219334740487
1756447781154594604,2.7022145390943315,-2.9900150323681434,1.3604932267862146
1756447781193241875,2.7097263158612415,-2.9788712851916603,-2.1475168603709527
1756447781232280545,2.702261991243089,-2.9899194353374594,1.3605949361376481
1756447781271912326,2.698678165715443,-2.9714069605735083,-2.1475168603709527
1756447781312144490,2.7207744660070405,-2.986335609809813,1.3605949361376481
1756447781346596736,2.7023094445114246,-2.9898238116283564,-2.147415127771314
1756447781376615978,2.6986781726477576,-2.971406945541323,1.343141661079077
1756447781401618483,2.7097263229238937,-2.9788712699665596,-2.1649701354295203
1756447781431347740,2.7097263229238937,-2.9788712699665596,1.3082350760391925
1756447781457007186,2.7097263229238937,-2.9788712699665596,-2.1300635503896324
1756447781486689457,2.6995324404074243,-2.9709449187648502,1.3089309587888103
1756447781515496319,2.7141824897966154,-2.996911529462833,-2.1293676676400146
1756447781538026781,2.7031765324436536,-2.9893592427337725,1.3090326867292852
1756447781559657035,2.7106320423727213,-2.9783051423476334,-2.1467192322194855
1756447781587225649,2.7106320423727213,-2.9783051423476334,1.3090326867292852
1756447781621509744,2.7031765324436536,-2.9893592427337725,-2.1467192322194855
1756447781654501845,2.7142306328297927,-2.99681475266284,1.291579394209343
1756447781685919088,2.7106523678469205,-2.9781912524759657,-2.1466175128841165
1756447781719068536,2.7031979823721657,-2.989246111174431,1.3091344060646541
1756447781748944118,2.7031979823721657,-2.989246111174431,-2.1640708054040587
1756447781777758988,2.721754219849628,-2.9855481043308667,1.3092361222887625
1756447781807493463,2.7032453419986986,-2.989150460226377,-2.1639690891799503
1756447781833314943,2.7032453419986986,-2.989150460226377,1.2917828297688203
1756447781860874757,2.692236320695943,-2.9816026604814447,-2.1813206573234787
1756447781890853309,2.710791048935022,-2.9779020003183696,1.291986273486895
1756447781924136350,2.714445258507156,-2.996313354847345,-2.1811172218228343
1756447781951242112,2.7108372546125747,-2.9778055771526777,1.326994574685763
1756447781975617929,2.7033873677125317,-2.988863467947302,-2.14621063678295
1756447782008695272,2.7101436214781316,-2.9779798067133747,1.3618607986030469
1756447782038483951,2.7101436214781316,-2.9779798067133747,-2.146250997905554
1756447782062391162,2.7026932882752708,-2.9890373968131936,1.3618607986030469
1756447782085576644,2.7101436214781316,-2.9779798067133747,-2.146250997905554
1756447782109545146,2.7065363645811735,-2.959471883410695,1.379314091122989
1756447782139104336,2.7026932882752708,-2.9890373968131936,-2.146250997905554
1756447782166802847,2.7026932882752708,-2.9890373968131936,1.379314091122989
1756447782195685681,2.7026932882752708,-2.9890373968131936,-2.146250997905554
1756447782222818858,2.6990860313783127,-2.9705294735105143,1.379314091122989
1756447782247485562,2.702740614493018,-2.988941725173741,-2.1286959856106193
1756447782278090594,2.7176840998429235,-2.9667278335626444,1.3446109498521075
1756447782306626827,2.6991769107971932,-2.970338855706599,-2.0936876765767174
1756447782332731845,2.691728827346305,-2.9813979613014414,1.3271576573321653
1756447782360073879,2.691728827346305,-2.9813979613014414,-2.1111409690966596
1756447782389621262,2.7102821969289335,-2.977690502937708,1.3098060818384774
1756447782416653007,2.702835238415908,-2.9887503660722383,-2.076132667030521
1756447782443596398,2.6992418131205325,-2.970130767485024,1.3273610904675515
1756447782464497281,2.7103024336734927,-2.9775766009932823,-2.093484243441331
1756447782490203581,2.710546434892659,-2.977741472370835,1.344994301426059
1756447782515679760,2.710546434892659,-2.977741472370835,-2.058397739962878
1756447782545859450,2.6920406314978105,-2.981359589009331,1.344994301426059
1756447782571738357,2.699484474875987,-2.970297628992659,-2.0758510324828237
1756447782596098201,2.710546434892659,-2.977741472370835,1.379900886465947
1756447782639033194,2.717990278270835,-2.9666795123541627,-2.0758510324828237
1756447782669150116,2.7031025915144826,-2.988803432387507,1.379900886465947
1756447782706294908,2.710546434892659,-2.977741472370835,-2.110757617522708
1756447782746240746,2.7105666382215623,-2.9776275722663637,1.4149091808867134
1756447782768784181,2.6920612029188358,-2.981247571099948,-2.128109200661772
1756447782809429058,2.6885042968485715,-2.9625366737535663,1.415112170371728
1756447782846651277,2.699633276748994,-2.9697690415928455,-2.127702804569786
1756447782878313581,2.703260795820023,-2.988273004214075,1.4153155769786991
1756447782906632217,2.710699017595123,-2.9772072633679456,-2.0927962195299017
1756447782937254268,2.703260795820023,-2.988273004214075,1.3978622844587534
1756447782970450259,2.710719164457501,-2.977093345041515,-2.0752412105117486
1756447783001665970,2.7181415696640427,-2.9664303713354765,1.4155405409950639
1756447783028219217,2.7033173035608775,-2.9884694683966684,-2.0750162467087314
1756447783057819018,2.7107519099795856,-2.97740129822052,1.3981889647599814
1756447783086881650,2.7107519099795856,-2.97740129822052,-2.0924695392286736
1756447783115158922,2.7143854737370257,-2.995904074815376,1.4330955497998694
1756447783143340802,2.7107519099795856,-2.97740129822052,-2.0750162467087314
1756447783171250761,2.7107519099795856,-2.97740129822052,1.4330955497998694
1756447783199810813,2.6996837398034375,-2.969966691801812,-2.0575629541887857
1756447783228736872,2.699703092464621,-2.9698538975366655,1.4331972619852387
1756447783255126776,2.7033385381611055,-2.988356304458103,-2.040007949483474
1756447783283407420,2.7107720187735818,-2.9772873781491422,1.4157439694652965
1756447783308445410,2.699703092464621,-2.9698538975366655,-2.040007949483474
1756447783333699241,2.6922696118521445,-2.9809228238456265,1.4157439694652965
1756447783360153160,2.6922696118521445,-2.9809228238456265,-2.040007949483474
1756447783387528362,2.7108180734422254,-2.9771908780165965,1.4507522747415393
1756447783421033051,2.699748391055126,-2.969758523376376,-2.0224529367271735
1756447783451896883,2.7108180734422254,-2.9771908780165965,1.468205567261485
1756447783479271947,2.7108180734422254,-2.9771908780165965,-2.0224529367271735
1756447783506036905,2.699932921656741,-2.9688540971697677,1.5031756607899993
1756447783529475480,2.6925012700503066,-2.9799242515521533,-2.039842720758486
1756447783557045280,2.688862767274356,-2.9614224455633336,1.520628953309945
1756447783584811103,2.7035714244326923,-2.987355903158588,-2.039842720758486
1756447783610683292,2.711003076039127,-2.9762857487762027,1.485722368270057
1756447783639673087,2.711003076039127,-2.9762857487762027,-2.057296013278428
1756447783663578027,2.711003076039127,-2.9762857487762027,1.485722368270057
1756447783693397025,2.711003076039127,-2.9762857487762027,-2.039842720758486
1756447783727706806,2.711003076039127,-2.9762857487762027,1.4508157832301691
1756447783759071296,2.7035714244326923,-2.987355903158588,-2.057296013278428
1756447783788912215,2.7184347276455614,-2.965215594393817,1.433362490710227
1756447783830708636,2.6925476692366312,-2.9798296456670985,-2.092100899437522
1756447783876939687,2.711049105098113,-2.976189261297005,1.4509174821109632
1756447783918657544,2.7110951324280013,-2.97609275218498,-2.1094524752100163
1756447783960819001,2.7000234665605762,-2.968663352574692,1.468472491378357
1756447784009591327,2.7046251712792766,-2.9870611373159632,-2.1094213433337643
1756447784054015551,2.693573697537573,-2.979520027787867,1.4511520485617915
1756447784100202917,2.704709811667454,-2.986608436449152,-2.126467796406317
1756447784129405771,2.723297486448054,-2.9826303579246303,1.4517622332061215
1756447784165372010,2.6938144986165096,-2.9786760182500025,-2.1085061755783734
1756447784203576708,2.71242384706091,-2.974709351465221,1.4522704872155145
1756447784244951952,2.7050553277880622,-2.985694494411349,-2.108099477004579
1756447784276532693,2.705102272390967,-2.9855988142655763,1.4350204708681567
1756447784320706680,2.705102272390967,-2.9855988142655763,-2.073091325640444
1756447784367256998,2.7125155596950745,-2.974516353573292,1.4001138858282687
1756447784407952803,2.705102272390967,-2.9855988142655763,-2.073091325640444
1756447784442794041,2.7014330990027906,-2.967103066269184,1.3652073007883843
1756447784485186779,2.712561432153624,-2.974419782674753,-2.090442911658151
1756447784521172573,2.7042986393746062,-2.988020027997429,1.3636018755771602
1756447784569448930,2.7119538247350263,-2.9763355420399806,-2.1089930393243215
1756447784633430035,2.716208324532223,-2.9930493968493086,1.3310331632909325
1756447784681085477,2.71268276821076,-2.974152523237705,-2.106858621137036
1756447784735061420,2.6980732077128255,-2.995954344395479,1.3318462721830606
1756447784778287851,2.705750330520588,-2.984285009497664,-2.1058420912120077
1756447784823886781,2.7060777258122393,-2.983613380860395,1.315715299358871
1756447784872340838,2.706217883738281,-2.983325485387145,-2.1048248863157077
1756447784908681038,2.706264598208321,-2.983229480544005,1.3335754881790862
1756447784956661687,2.706311292510773,-2.983133492328099,-2.122074705361019
1756447785001659272,2.7039819225174377,-2.984181133443107,1.29626690492033
1756447785036281242,2.7039819225174377,-2.984181133443107,-2.1245784289885528
1756447785063600584,2.7039819225174377,-2.984181133443107,1.29626690492033
1756447785096839900,2.7039819225174377,-2.984181133443107,-2.1071251364686105
1756447785128384074,2.7039819225174377,-2.984181133443107,1.2788136124003842
1756447785161720473,2.7039819225174377,-2.984181133443107,-2.072218551428726
1756447785190435903,2.7113855345133993,-2.973092206846609,1.2788136124003842
1756447785219512651,2.7003866980662776,-2.965497561773672,-2.0545617794314204
1756447785246497008,2.692985342592558,-2.9765879946236966,1.2790170918777441
1756447785276672137,2.70416957763409,-2.983797571601204,-2.0194517403133823
1756447785303201149,2.6968184977927523,-2.9947943578947114,1.2618689894455848
1756447785327117148,2.7043102148177454,-2.983509853633954,-2.00169325134992
1756447785355396053,2.696962479651908,-2.9945089064347044,1.2447208682517399
1756447785386614788,2.6933543039521832,-2.9758297810472114,-1.9664814863903537
1756447785415369365,2.704497581001604,-2.983126190500093,1.2624793492396087
1756447785451233292,2.7045912065615023,-2.982934328273026,-1.9836296075859359
1756447785487334305,2.7041943873262215,-2.9834845556880065,1.244477136876263
1756447785520327524,2.7041943873262215,-2.9834845556880065,-1.9669286867933025
1756447785551591198,2.718988965107328,-2.9612982643603445,1.2619304293962053
1756447785579891566,2.7042412506451283,-2.9833886669745224,-1.9493736835051294
1756447785611686847,2.7042412506451283,-2.9833886669745224,1.2445788476444903
1756447785643040545,2.7043349645054398,-2.983196841503346,-1.9317169336567375
1756447785672203208,2.696941061233428,-2.994292244067174,1.24478230497294
1756447785698673232,2.7043818073090353,-2.9831009205751853,-1.931615203885812
1756447785727917874,2.7044750104580073,-2.982909993017084,1.2625398020950307
1756447785756924822,2.6971063996827453,-2.9938951293913414,-1.9138577070915126
1756447785782471749,2.7044957983440407,-2.9827967263046933,1.262641531538165
1756447785806284709,2.7045426062929585,-2.9827007779911043,-1.913755968436888
1756447785830587466,2.715663278685178,-2.989974641065405,1.2977515902987378
1756447785856625310,2.7046048694488127,-2.982360941318651,-1.8959974718543862
1756447785887218577,2.7046255996806186,-2.982247664243016,1.298056788562068
1756447785918451943,2.704672355665259,-2.9821516986022196,-1.8957940107918496
1756447785943800178,2.7158227621247204,-2.9894372261036515,1.3157135397726485
1756447785972558430,2.70471909963523,-2.9820557328286585,-1.9131455764168592
1756447785996124584,2.707415564968729,-2.9843835609401648,1.3334968864192334
1756447786025802133,2.707462265110824,-2.9842875798996076,-1.9301670931158519
1756447786063026081,2.7075089557234584,-2.984191593627732,1.3337003303180026
1756447786092969829,2.707555640739906,-2.984095594035006,-1.929963639623427
1756447786118586513,2.696447291550081,-2.9767211556207145,1.3687086466458531
1756447786142534015,2.707555640739906,-2.984095594035006,-1.929963639623427
1756447786165576556,2.707555640739906,-2.984095594035006,1.3512553541259074
1756447786192462914,2.707555640739906,-2.984095594035006,-1.9474169321433692
1756447786213907607,2.707555640739906,-2.984095594035006,1.3338020616059652
1756447786240365362,2.707555640739906,-2.984095594035006,-1.9474169321433692
1756447786264298383,2.707555640739906,-2.984095594035006,1.3338020616059652
1756447786290766136,2.7075762637063217,-2.9839823015176274,-1.9473152064709964
1756447786319065492,2.7075762637063217,-2.9839823015176274,1.333903787278338
1756447786350160284,2.7075762637063217,-2.9839823015176274,-1.9473152064709964
1756447786377629242,2.7075762637063217,-2.9839823015176274,1.2989972022384535
1756447786405137428,2.7075762637063217,-2.9839823015176274,-1.9647684989909422
1756447786432489751,2.7075762637063217,-2.9839823015176274,1.2640906171985655
1756447786463185077,2.707622924507934,-2.98388630206264,-2.0170266554709713
1756447786488790176,2.726356439053418,-2.9803105863780317,1.2636098509738005
1756447786515232480,2.707918941434512,-2.9839415202902506,-2.000054135684973
1756447786542266037,2.707918941434512,-2.9839415202902506,1.2811648580643613
1756447786573347998,2.707918941434512,-2.9839415202902506,-2.017507428204919
1756447786606488698,2.707918941434512,-2.9839415202902506,1.298618150584307
1756447786635761594,2.707918941434512,-2.9839415202902506,-2.034960720724861
1756447786660278595,2.696812637795204,-2.9765640015257366,1.2811648580643613
1756447786688755156,2.707918941434512,-2.9839415202902506,-2.034960720724861
1756447786716520738,2.707918941434512,-2.9839415202902506,1.298618150584307
1756447786746500862,2.7079395950096625,-2.983828237937352,-2.052312291560014
1756447786770592363,2.711670260070718,-3.0023116809472663,1.3161731647890385
1756447786798518432,2.700611017557999,-2.9948400672127984,-2.0522105827353094
1756447786825202999,2.700611017557999,-2.9948400672127984,1.281368288573855
1756447786857156789,2.7190940810307525,-2.9911075222417773,-2.017303997695425
1756447786886036690,2.689550267058539,-2.9873707042258313,1.264016709108553
1756447786920063980,2.700658821383114,-2.994744833629851,-2.034655577160727
1756447786957590980,2.708032950787134,-2.9836362793052764,1.2814700016284952
1756447786984462765,2.708032950787134,-2.9836362793052764,-2.017202284640785
1756447787010188019,2.7004848604532787,-2.993982168300298,1.2639765209473879
1756447787038252757,2.7078594362837154,-2.9828739103373945,-2.01724247280195
1756447787064722097,2.707906103843033,-2.9827779248365847,1.2989848179226655
1756447787093216489,2.7079527649013393,-2.982681927877538,-2.034492334339067
1756447787129356868,2.700580448987317,-2.9937916858277873,1.2816332444501555
1756447787160541466,2.700580448987317,-2.9937916858277873,-1.9995857492991789
1756447787190656388,2.700580448987317,-2.9937916858277873,1.2641799519302133
1756447787212744278,2.7079527649013393,-2.982681927877538,-1.9821324567792367
1756447787241904642,2.7190625228515883,-2.9900542437915596,1.2292733668903253
1756447787269816555,2.7079527649013393,-2.982681927877538,-1.9646791642592945
1756447787297216039,2.7079994159125245,-2.98258592675339,1.2642816703623545
1756447787328536905,2.7079994159125245,-2.98258592675339,-2.0169373233869834
1756447787361358009,2.7079994159125245,-2.98258592675339,1.2817349628822967
1756447787388001376,2.7006282301038,-2.993696434546579,-2.0343906159069256
1756447787413427513,2.7079994159125245,-2.98258592675339,1.2642816703623545
1756447787440062377,2.7079994159125245,-2.98258592675339,-2.0343906159069256
1756447787465629800,2.708020004080938,-2.98247263716074,1.2294768029521173
1756447787492020794,2.696744195823568,-2.973589746829966,-2.068245860604261
1756447787521318680,2.7152219479120903,-2.9698309963655647,1.2304264256650193
1756447787554005712,2.7005722004085873,-2.9918596591185507,-2.06804245270402
1756447787586724736,2.708068952913581,-2.9804517443184033,1.230934946121078
1756447787620843515,2.708161870623315,-2.980259697078239,-2.0675340244973732
1756447787652222785,2.7082547970964663,-2.9800675320537993,1.1964350970675284
1756447787680207130,2.708301252796194,-2.979971427717446,-2.0672288783959587
1756447787711407416,2.71574004739621,-2.968652009419531,1.1792869510461728
1756447787739524131,2.6973125678035665,-2.972338336669862,-2.0494704563322585
1756447787770356276,2.708486931396633,-2.9795870592899143,1.179490331613838
1756447787797913916,2.7011908064944494,-2.9906203975958334,-2.0318137672838468
1756447787824919490,2.7011908064944494,-2.9906203975958334,1.1795920563857152
1756447787849451430,2.7011908064944494,-2.9906203975958334,-2.049267059803789
1756447787877553247,2.7012122333803865,-2.9905078094141846,1.1622404749187503
1756447787903414726,2.701259747223862,-2.990412430201085,-2.049063635164984
1756447787930444841,2.708646385314826,-2.9791853428517276,1.144990607476224
1756447787960849113,2.7086927411596173,-2.979089220632154,-2.0488602239360354
1756447787990624244,2.7131751170597913,-2.9984675240705885,1.144401845502756
1756447788025450167,2.702095290628673,-2.9910264649414957,-2.0494489606991344
1756447788053512463,2.7021428244677947,-2.9909311133579406,1.1446052689444919
1756447788084052796,2.7206151247148957,-2.987145660824953,-2.049347262205128
1756447788110764913,2.7094862483248514,-2.9798022369678963,1.1271519764245461
1756447788138662032,2.7094862483248514,-2.9798022369678963,-2.0318939696851857
1756447788166523362,2.7094862483248514,-2.9798022369678963,1.1271519764245461
1756447788195609062,2.7094862483248514,-2.9798022369678963,-1.9795340921253555
1756447788222145612,2.7021428244677947,-2.9909311133579406,1.1446052689444919
1756447788250590991,2.7206151247148957,-2.987145660824953,-1.9969873846452977
1756447788279662753,2.6948480664329537,-3.001965360928138,1.1447069880339882
1756447788306097576,2.7095790422244814,-2.979609986431393,-1.979330653372724
1756447788330662476,2.7095790422244814,-2.979609986431393,1.1797152927370078
1756447788359665081,2.709625416241151,-2.9795138712193108,-1.9966822446462267
1756447788388257215,2.709625416241151,-2.9795138712193108,1.197270286503393
1756447788416512244,2.702332888784731,-2.990549606604682,-1.9791272426015247
1756447788442355140,2.702332888784731,-2.990549606604682,1.1973719960281528
1756447788470522422,2.709671784256086,-2.979417743467283,-1.996580535121467
1756447788498630743,2.704506905586034,-2.9928746196300406,1.196474061235147
1756447788523944704,2.704506905586034,-2.9928746196300406,-2.0149317624344185
1756447788551600481,2.704506905586034,-2.9928746196300406,1.196474061235147
1756447788579613745,2.7118557937846415,-2.9817493508290793,-1.9974784699144728
1756447788607540764,2.722981062585603,-2.989098239027686,1.1790207687152012
1756447788638192308,2.7045544809940725,-2.9927792776560027,-2.0148300544391198
1756447788659391540,2.7046020506896307,-2.9926839228549627,1.1617709007073707
1756447788684260404,2.7046020506896307,-2.9926839228549627,-2.032181630442249
1756447788711815977,2.7046020506896307,-2.9926839228549627,1.1443176081874284
1756447788739093784,2.704649596130951,-2.9925885924025803,-2.0146266525373626
1756447788763324095,2.704649596130951,-2.9925885924025803,1.126966001052427
1756447788788698155,2.7157771066325624,-2.9999340858295596,-1.9971733600174169
1756447788819211708,2.6861765922023606,-2.9963706094772125,1.126966001052427
1756447788849530691,2.7158253942063757,-2.9998376090993393,-1.9970716641965893
1756447788875712892,2.7047446620784306,-2.9923979086756236,1.109716088176608
1756447788902841264,2.7047446620784306,-2.9923979086756236,-2.0144232728932394
1756447788928585103,2.70479218947155,-2.9923025415758397,1.1098177971813037
1756447788952348560,2.70479218947155,-2.9923025415758397,-2.031774856408486
1756447788973168038,2.712134287679582,-2.981172790565468,1.1098177971813037
1756447789001490257,2.7163010964388534,-2.9787808629492583,-2.046751236162084
1756447789026924561,2.7163010964388534,-2.9787808629492583,1.1122947099476477
1756447789056977455,2.709033868454993,-2.9898332782429953,-2.0291962368145064
1756447789087863088,2.7090811442729845,-2.9897377755901866,1.1299514273600941
1756447789122002265,2.7090811442729845,-2.9897377755901866,-2.0290945187496376
1756447789147921987,2.7090811442729845,-2.9897377755901866,1.112498134840152
1756447789175736770,2.720230534582905,-2.9970500159696,-2.0290945187496376
1756447789201910519,2.7091284099437125,-2.9896422690034554,1.0951465594538483
1756447789231016215,2.7091284099437125,-2.9896422690034554,-2.028992801615999
1756447789255925325,2.7091284099437125,-2.9896422690034554,1.077693266933906
1756447789284808146,2.709175650008685,-2.9895467897314782,-1.9939845336509272
1756447789316588014,2.709175650008685,-2.9895467897314782,1.0603416573391442
1756447789342389619,2.6907624347411185,-2.993294061085092,-1.9764295292542542
1756447789368932778,2.698117738912645,-2.982048108829088,1.0605450268186587
1756447789397941776,2.7092701026967294,-2.98935581337133,-1.9937811641714127
1756447789427443806,2.7092701026967294,-2.98935581337133,1.0779983193386045
1756447789453325643,2.7054254434548874,-2.9708957450450035,-1.9937811641714127
1756447789482133093,2.698164223028121,-2.9819537163132455,1.0431934526554834
1756447789508667943,2.709505216372312,-2.9898242092077405,-2.0115317034446996
1756447789538019685,2.6983550252723325,-2.982513189984459,1.0253411950254332
1756447789575242053,2.6984015259063474,-2.982418834703593,-2.011430010321863
1756447789604019425,2.7095524604290464,-2.9897287199913203,1.0428961806682118
1756447789635791963,2.7095524604290464,-2.9897287199913203,-2.011430010321863
1756447789664174793,2.6984015259063474,-2.982418834703593,1.0254428881482696
1756447789692004922,2.6872505913836475,-2.9751089494158656,-2.011430010321863
1756447789722012171,2.7095524604290464,-2.9897287199913203,1.0428961806682118
1756447789749971547,2.7095524604290464,-2.9897287199913203,-2.0288833028418054
1756447789781312260,2.716908449579374,-2.9784815407752974,1.0604511740940161
1756447789802059076,2.698448020502603,-2.9823244674725005,-2.0287816019359433
1756447789827568369,2.698448020502603,-2.9823244674725005,1.0604511740940161
1756447789853731224,2.698448020502603,-2.9823244674725005,-2.0287816019359433
1756447789881853233,2.6984945096078747,-2.982230087175437,1.0605528839851566
1756447789909281261,2.6985409909229037,-2.9821356984756515,-2.0111248856737944
1756447789934046009,2.6873878264931443,-2.974829215953122,1.0432013053162805
1756447789961314765,2.6985409909229037,-2.9821356984756515,-2.0111248856737944
1756447789991220384,2.698345755152972,-2.9827729541583974,1.0426614825065528
1756447790018319111,2.687242309861431,-2.975367229178005,-2.0290162996641428
1756447790049020983,2.6983922720939995,-2.9826785974399357,1.0427631838458744
1756447790078627459,2.691080903832068,-2.993828559672504,-2.0115630071442006
1756447790107127420,2.698485288328519,-2.982489847196976,1.0429666108980093
1756447790133048100,2.709636737660462,-2.9897989471036928,-2.028812872612008
1756447790161461586,2.698485288328519,-2.982489847196976,1.0080600258581214
1756447790186823732,2.6985317827119966,-2.9823954636294965,-2.0287111576297896
1756447790213034051,2.6985317827119966,-2.9823954636294965,1.0081617408403396
1756447790241570447,2.7059304320779893,-2.971053018601045,-2.0459610366918817
1756447790270985978,2.6986247351358097,-2.982206697628088,1.0083651542981897
1756447790299829514,2.6875167763551597,-2.9748077421513273,-2.028406034295063
1756447790325374483,2.6948213388202324,-2.963653320120441,1.0259201566950118
1756447790354229013,2.68756248798467,-2.9747144771944614,-2.0283043224851163
1756447790379518813,2.698717652918126,-2.982017905085298,1.043475161024901
1756447790405900465,2.6876081921303947,-2.9746212035011967,-2.045655898737749
1756447790432543950,2.6949995921724366,-2.9632772561986602,1.078686887213724
1756447790461230659,2.6950441340344167,-2.9631832237545663,-2.0453507550624295
1756447790490450106,2.6889383060818677,-2.973206017527333,1.0452016296851063
1756447790521271287,2.7074805077572486,-2.9691319546510453,-2.078734298621132
1756447790548091102,2.7001986218226115,-2.9803011936978288,1.0628583549686574
1756447790575596584,2.7074805077572486,-2.9691319546510453,-2.1136408836610165
1756447790602360164,2.7001986218226115,-2.9803011936978288,1.0628583549686574
1756447790626502655,2.7001986218226115,-2.9803011936978288,-2.1310941761809623
1756447790656303172,2.700244883593513,-2.9802067017859417,1.0629600648390145
1756447790683745445,2.6891204181218837,-2.972832586374812,-2.095984165894283
1756447790706692856,2.6891204181218837,-2.972832586374812,1.063061780215449
1756447790733747753,2.6964000318006582,-2.961661866239697,-2.113437458414225
1756447790759494114,2.685272938292021,-2.9542892811990393,1.0457101998749145
1756447790789073451,2.696444398794725,-2.96156775864187,-2.078429161194933
1756447790820664019,2.6892114161827845,-2.9726458450333566,1.0283586219888328
1756447790855836551,2.678057762023009,-2.9652592092690315,-2.0782257427111226
1756447790880766029,2.689321646462224,-2.97234863981489,1.0112104657583778
1756447790906284156,2.6782104476315007,-2.9648731370039783,-2.0778188810070404
1756447790930250311,2.674391840950127,-2.9462418364416663,1.0116173262825967
1756447790960519195,2.6856127619473313,-2.9534182096290236,-2.0949670298235077
1756447790989846264,2.6783177026219933,-2.9669013472783097,1.0278156933997522
1756447791022531674,2.6783177026219933,-2.9669013472783097,-2.096323667670095
1756447791056199174,2.6560245195442804,-2.9522445912397255,1.0279174064145309
1756447791085382596,2.6671935083532787,-2.9595268609843686,-2.061315369615432
1756447791128604442,2.6671935083532787,-2.9595268609843686,1.0279174064145309
1756447791160277199,2.667237554740432,-2.959435772079683,-2.0612136522804327
1756447791194413137,2.6376606562960414,-2.9559551499257988,1.0630274306796146
1756447791226067745,2.6488755466438745,-2.963145933004562,-2.0784635133804983
1756447791253204636,2.63770433617937,-2.9558670718019417,1.045675847689349
1756447791280034494,2.6304254749767493,-2.9670382822664463,-2.061010220860556
1756447791306194328,2.619254264512245,-2.9597594210638256,1.0282225551694069
1756447791336987561,2.619254264512245,-2.9597594210638256,-2.0435569283406103
1756447791362658864,2.608126383625327,-2.952395484305666,1.0283242716019565
1756447791390423083,2.608126383625327,-2.952395484305666,-2.0434552119080607
1756447791418089200,2.5896767079695264,-2.9562897102228813,1.063230856641841
1756447791449168197,2.5785047571830186,-2.949011985353589,-2.0085486268681763
1756447791481375778,2.5896767079695264,-2.9562897102228813,1.0806841491617867
1756447791510584284,2.5679639442361295,-2.941178723261103,-1.9909133208024699
1756447791539902578,2.560688252933753,-2.9523519985070545,1.1157727477474317
1756447791569082649,2.560688252933753,-2.9523519985070545,-1.9909133208024699
1756447791600364175,2.5679639442361295,-2.941178723261103,1.1157727477474317
1756447791630184587,2.5495575980457716,-2.9449972421318007,-1.9733583074766798
1756447791659229413,2.5495575980457716,-2.9449972421318007,1.1158744685532795
1756447791685505169,2.5495575980457716,-2.9449972421318007,-1.9559050149567376
1756447791709055851,2.5383835827684447,-2.9377226874216253,1.1507810535931675
1756447791737651624,2.5383835827684447,-2.9377226874216253,-1.9559050149567376
1756447791770140967,2.5383835827684447,-2.9377226874216253,1.185687638633052
1756447791807842791,2.5495575980457716,-2.9449972421318007,-1.9559050149567376
1756447791847893004,2.5495575980457716,-2.9449972421318007,1.1682343461131097
1756447791882904526,2.5495575980457716,-2.9449972421318007,-1.9209984299168497
1756447791911616171,2.564106707466122,-2.9226492115771463,1.185687638633052
1756447791940949483,2.568006168033274,-2.941097781564648,-1.9035451373969074
1756447791969595752,2.5568321527559466,-2.9338232268544733,1.22059422367294
1756447791995406871,2.560781978946136,-2.9521791446624164,-1.8863319718564213
1756447792022883636,2.5680592166290936,-2.941006876524074,1.2203540966934838
1756447792051239310,2.5680592166290936,-2.941006876524074,-1.8688786793364756
1756447792082041053,2.571954247084478,-2.959456382345374,1.2203540966934838
1756447792114897697,2.5792314847674356,-2.9482841142070315,-1.9212385568963057
1756447792148983890,2.590403752905778,-2.9555613518899886,1.1854475116535959
1756447792175375430,2.6127482891824623,-2.9701158272559027,-1.9212385568963057
1756447792202815940,2.6015760210441203,-2.9628385895729457,1.1854475116535959
1756447792233880644,2.6015760210441203,-2.9628385895729457,-1.9037852643763635
1756447792263189110,2.616643319637847,-2.9885653330772026,1.2203540966934838
1756447792291740883,2.609414286460673,-2.9996524710933783,-1.9211368454106506
1756447792321231876,2.631760302979088,-3.0142046736880306,1.2379091006990812
1756447792351125643,2.631760302979088,-3.0142046736880306,-1.9385901379305928
1756447792376544892,2.617208100384435,-3.0365506902064454,1.2379091006990812
1756447792401573614,2.6356572099409687,-3.0326537832445646,-1.9385901379305928
1756447792428884350,2.6244842016817618,-3.025377681947238,1.2379091006990812
1756447792457351385,2.646830218200176,-3.039929884541891,-1.9211368454106506
1756447792482205287,2.6541063194975023,-3.0287568762826838,1.2379091006990812
1756447792514239308,2.6470859601434746,-3.039892100489804,-1.9561585168422795
1756447792539785345,2.658258130948447,-3.0471694876001476,1.2727005993472282
1756447792563262610,2.658258130948447,-3.0471694876001476,-1.9212519318023915
1756447792587040390,2.658258130948447,-3.0471694876001476,1.2901538918671704
1756447792625969897,2.6694303017534198,-3.054446874710491,-1.9387052243223337
1756447792652391206,2.658258130948447,-3.0471694876001476,1.2727005993472282
1756447792680557591,2.6655355180587907,-3.0359973167951755,-1.9037986392824493
1756447792703815644,2.6694303017534198,-3.054446874710491,1.2727005993472282
1756447792731708445,2.687879859668735,-3.050552091015862,-1.9212519318023915
1756447792760202351,2.687879859668735,-3.050552091015862,1.255247306827286
1756447792783843609,2.680656999664593,-3.061631910847513,-1.9386035051247426
1756447792814607118,2.6996232313591504,-3.105806484787155,1.2902556110647616
1756447792841837233,2.729245304001898,-3.1091860750868987,-1.9386035051247426
1756447792871136790,2.7253486436531946,-3.0907369134413014,1.3077089035847074
1756447792901450011,2.7141757326560443,-3.0834606627928545,-1.9386035051247426
1756447792926787659,2.7141757326560443,-3.0834606627928545,1.3251621961046496
1756447792954510616,2.721969053353451,-3.120358986084049,-1.9560567976446883
1756447792979636743,2.7258657137021545,-3.1388081477296463,1.3251621961046496
1756447793011175347,2.7442645898724023,-3.1359085370866073,-1.9740842214496048
1756447793035915938,2.7219271266068015,-3.1213432087533692,1.3245880648196753
1756447793062300612,2.7219271266068015,-3.1213432087533692,-1.9566309289296626
1756447793088931446,2.725813194072983,-3.1397946045527885,1.307134772299733
1756447793126139774,2.7404386726373433,-3.117358741747535,-1.9739825039138736
1756447793149112490,2.763271977816775,-3.1799932710889025,1.2897831973155185
1756447793176746609,2.770553505889862,-3.168823798739229,-1.9390759188739857
1756447793207971530,2.770553505889862,-3.168823798739229,1.2897831973155185
1756447793235961122,2.770553505889862,-3.168823798739229,-1.9739825039138736
1756447793259677932,2.7554960892636027,-3.143091270243382,1.2723299047955763
1756447793287016471,2.766665561613276,-3.150372798316469,-1.9914357964338159
1756447793316076721,2.763271977816775,-3.1799932710889025,1.3246897823554065
1756447793343722018,2.759384033540189,-3.161542270666142,-1.9739825039138736
1756447793367344781,2.752102505467102,-3.172711743015815,1.3072364898354643
1756447793396993993,2.759384033540189,-3.161542270666142,-1.9739825039138736
1756447793426584280,2.759384033540189,-3.161542270666142,1.3246897823554065
1756447793454228077,2.7554960892636027,-3.143091270243382,-1.9216226263540435
1756447793483556488,2.7482145611905158,-3.154260742593055,1.3421430748753487
1756447793513204869,2.7439796297834413,-3.1367991311766357,-1.9576264737048348
1756447793545561866,2.7439796297834413,-3.1367991311766357,1.3584991050843875
1756447793567110831,2.736685850255195,-3.147960607057656,-1.940173181184889
1756447793603365814,2.7439796297834413,-3.1367991311766357,1.3410458125644453
1756447793627442466,2.751273409311688,-3.125637655295615,-1.9227198886649468
1756447793656399781,2.7439796297834413,-3.1367991311766357,1.3235925200445031
1756447793681417537,2.7439796297834413,-3.1367991311766357,-1.9227198886649468
1756447793707830690,2.7439796297834413,-3.1367991311766357,1.306139227524561
1756447793734158716,2.7439796297834413,-3.1367991311766357,-1.9227198886649468
1756447793761017599,2.736685850255195,-3.147960607057656,1.306139227524561
1756447793791652868,2.7478473261362155,-3.155254386585902,-1.940173181184889
1756447793818632531,2.7478473261362155,-3.155254386585902,1.306139227524561
1756447793843491814,2.7367491066490466,-3.147862622492193,-1.9575247631275055
1756447793872735510,2.7590735420046726,-3.162447910992924,1.3236942306218324
1756447793897387018,2.7590735420046726,-3.162447910992924,-1.9226181780876175
1756447793925015104,2.7590735420046726,-3.162447910992924,1.3760541081816626
1756447793951528600,2.755203968577225,-3.143993049064745,-1.9226181780876175
1756447793980822561,2.74791132432686,-3.1551552667425584,1.3760541081816626
1756447794009679114,2.7490491125866403,-3.1534169824715255,-1.9041717074425861
1756447794038822691,2.737879657520496,-3.1461354278865046,1.3421407012668638
1756447794064173238,2.737879657520496,-3.1461354278865046,-1.9216249999625283
1756447794090438187,2.7636122217566825,-3.1310780723392364,1.359593993786806
1756447794116292868,2.752937013067765,-3.1718679921226918,-1.9041717074425861
1756447794148015559,2.7602185676527857,-3.160698537056547,1.3421407012668638
1756447794173022340,2.718934401492103,-3.1019518539991524,-1.9216249999625283
1756447794200265914,2.726215956077124,-3.0907823989330074,1.3770472863067518
1756447794226006854,2.726215956077124,-3.0907823989330074,-1.9390782924824705
1756447794257017963,2.7373854111432685,-3.098063953518028,1.359593993786806
1756447794289386952,2.718934401492103,-3.1019518539991524,-1.9390782924824705
1756447794321617607,2.7301038565582476,-3.109233408584173,1.3770472863067518
1756447794346141228,2.7155407473882063,-3.131572318716463,-1.9390782924824705
1756447794375396587,2.7228223019732267,-3.120402863650318,1.3770472863067518
1756447794398961198,2.7228223019732267,-3.120402863650318,-1.9565315850024163
1756447794428636443,2.7228223019732267,-3.120402863650318,1.3770472863067518
1756447794456785437,2.7116528469070817,-3.113121309065297,-1.9739848775223585
1756447794485607431,2.6827455084733343,-3.0619205929040842,1.3769893329201324
1756447794511969310,2.6827455084733343,-3.0619205929040842,-1.9914961234289201
1756447794540582737,2.6827455084733343,-3.0619205929040842,1.3595360404001866
1756447794570735177,2.6827455084733343,-3.0619205929040842,-1.9914961234289201
1756447794598127668,2.6827455084733343,-3.0619205929040842,1.3420827478802444
1756447794625223751,2.6715764754166935,-3.054638391023544,-1.9914961234289201
1756447794647153549,2.6939145415299746,-3.0692027947846245,1.3246294553603022
1756447794677353874,2.705083574586615,-3.0764849966651653,-2.008949415948866
1756447794709312326,2.6939145415299746,-3.0692027947846245,1.3246294553603022
1756447794735684248,2.675463306592794,-3.0730896259607245,-2.008949415948866
1756447794758999612,2.6866323396494343,-3.080371827841265,1.3246294553603022
