%time,field.x,field.y,field.theta
1757045311180990972,2.9580033777625427,-2.3768282136076144,-27.242915159839264
1757045311190556085,2.9580033777625427,-2.3768282136076144,-27.242915159839264
1757045311200890329,2.9580033777625427,-2.3768282136076144,-27.242915159839264
1757045311210669876,2.9580033777625427,-2.3768282136076144,-27.242915159839264
1757045311220910524,2.9580033777625427,-2.3768282136076144,-27.242915159839264
1757045311231245480,2.9580033777625427,-2.3768282136076144,-27.242915159839264
1757045311240754170,2.9580033777625427,-2.3768282136076144,-27.242915159839264
1757045311250587780,2.9580033777625427,-2.3768282136076144,-27.242915159839264
1757045311261186877,2.9580033777625427,-2.3768282136076144,-27.242915159839264
1757045311270655677,2.9580033777625427,-2.3768282136076144,-27.242915159839264
1757045311280964969,2.9580033777625427,-2.3768282136076144,-27.242915159839264
1757045311291144439,2.9580033777625427,-2.3768282136076144,-27.242915159839264
1757045311301268967,2.9580033777625427,-2.3768282136076144,-27.242915159839264
1757045311311193762,2.9580033777625427,-2.3768282136076144,-27.242915159839264
1757045311320512001,2.9580033777625427,-2.3768282136076144,-27.242915159839264
1757045311330959700,2.9580033777625427,-2.3768282136076144,-27.242915159839264
1757045311341102448,2.9580033777625427,-2.3768282136076144,-27.242915159839264
1757045311350856502,2.9580033777625427,-2.3768282136076144,-27.242915159839264
1757045311360942842,2.9580033777625427,-2.3768282136076144,-27.242915159839264
1757045311369453856,2.9582418681564686,-2.3769962654989882,-27.243187337246336
1757045311370809999,2.9582418681564686,-2.3769962654989882,-27.243187337246336
1757045311380903781,2.9582418681564686,-2.3769962654989882,-27.243187337246336
1757045311391493285,2.9582418681564686,-2.3769962654989882,-27.243187337246336
1757045311400652148,2.9582418681564686,-2.3769962654989882,-27.243187337246336
1757045311411128884,2.9582418681564686,-2.3769962654989882,-27.243187337246336
1757045311420492903,2.9582418681564686,-2.3769962654989882,-27.243187337246336
1757045311430842893,2.9582418681564686,-2.3769962654989882,-27.243187337246336
1757045311440695004,2.9582418681564686,-2.3769962654989882,-27.243187337246336
1757045311451012121,2.9582418681564686,-2.3769962654989882,-27.243187337246336
1757045311460990893,2.9582418681564686,-2.3769962654989882,-27.243187337246336
1757045311470966241,2.9582418681564686,-2.3769962654989882,-27.243187337246336
1757045311481133924,2.9582418681564686,-2.3769962654989882,-27.243187337246336
1757045311490569892,2.9582418681564686,-2.3769962654989882,-27.243187337246336
1757045311500773137,2.9582418681564686,-2.3769962654989882,-27.243187337246336
1757045311511344709,2.9582418681564686,-2.3769962654989882,-27.243187337246336
1757045311520802773,2.9582418681564686,-2.3769962654989882,-27.243187337246336
1757045311530784646,2.9582418681564686,-2.3769962654989882,-27.243187337246336
1757045311541854674,2.9582418681564686,-2.3769962654989882,-27.243187337246336
1757045311550981587,2.9582418681564686,-2.3769962654989882,-27.243187337246336
1757045311561314754,2.9582418681564686,-2.3769962654989882,-27.243187337246336
1757045311570415764,2.9582418681564686,-2.3769962654989882,-27.243187337246336
1757045311580699571,2.9582418681564686,-2.3769962654989882,-27.243187337246336
1757045311591313614,2.9582418681564686,-2.3769962654989882,-27.243187337246336
1757045311600796855,2.9582418681564686,-2.3769962654989882,-27.243187337246336
1757045311611028475,2.9582418681564686,-2.3769962654989882,-27.243187337246336
1757045311620745027,2.9582418681564686,-2.3769962654989882,-27.243187337246336
1757045311630690686,2.9582418681564686,-2.3769962654989882,-27.243187337246336
1757045311641140114,2.9582418681564686,-2.3769962654989882,-27.243187337246336
1757045311650677568,2.9582418681564686,-2.3769962654989882,-27.243187337246336
1757045311660764331,2.9582418681564686,-2.3769962654989882,-27.243187337246336
1757045311670603080,2.9582418681564686,-2.3769962654989882,-27.243187337246336
1757045311680819947,2.9582418681564686,-2.3769962654989882,-27.243187337246336
1757045311690543628,2.9582338361552933,-2.377009675553277,-27.243289048290542
1757045311700476291,2.9582338361552933,-2.377009675553277,-27.243289048290542
1757045311710903225,2.9582418696623862,-2.3769962660789603,-27.24318733544835
1757045311720782977,2.9582418696623862,-2.3769962660789603,-27.24318733544835
1757045311731671000,2.9582418696623862,-2.3769962660789603,-27.24318733544835
1757045311740802158,2.9582418696623862,-2.3769962660789603,-27.24318733544835
1757045311750986039,2.9582418696623862,-2.3769962660789603,-27.24318733544835
1757045311760703127,2.9582418696623862,-2.3769962660789603,-27.24318733544835
1757045311770575316,2.9582418696623862,-2.3769962660789603,-27.24318733544835
1757045311780551612,2.9582418696623862,-2.3769962660789603,-27.24318733544835
1757045311790881838,2.9582418696623862,-2.3769962660789603,-27.24318733544835
1757045311800644014,2.9582418696623862,-2.3769962660789603,-27.24318733544835
1757045311811078591,2.9582418696623862,-2.3769962660789603,-27.24318733544835
1757045311820536737,2.9582418696623862,-2.3769962660789603,-27.24318733544835
1757045311830927161,2.9582418696623862,-2.3769962660789603,-27.24318733544835
1757045311841435649,2.9582418696623862,-2.3769962660789603,-27.24318733544835
1757045311850975819,2.9582418696623862,-2.3769962660789603,-27.24318733544835
1757045311860760692,2.9582418696623862,-2.3769962660789603,-27.24318733544835
1757045311868996533,2.9580233113014387,-2.376318770273143,-27.24373258037484
1757045311870533323,2.9580233113014387,-2.376318770273143,-27.24373258037484
1757045311880811989,2.9580233113014387,-2.376318770273143,-27.24373258037484
1757045311891156654,2.9580233113014387,-2.376318770273143,-27.24373258037484
1757045311900848434,2.9580233113014387,-2.376318770273143,-27.24373258037484
1757045311910827341,2.9580233113014387,-2.376318770273143,-27.24373258037484
1757045311920899480,2.9580233113014387,-2.376318770273143,-27.24373258037484
1757045311930721862,2.9580233113014387,-2.376318770273143,-27.24373258037484
1757045311941936127,2.9580233113014387,-2.376318770273143,-27.24373258037484
1757045311950570566,2.9580233113014387,-2.376318770273143,-27.24373258037484
1757045311962029118,2.9580233113014387,-2.376318770273143,-27.24373258037484
1757045311970881771,2.9580233113014387,-2.376318770273143,-27.24373258037484
1757045311981065909,2.9580233113014387,-2.376318770273143,-27.24373258037484
1757045311991041936,2.9580233113014387,-2.376318770273143,-27.24373258037484
1757045312001068238,2.9580233113014387,-2.376318770273143,-27.24373258037484
1757045312011513989,2.9580233113014387,-2.376318770273143,-27.24373258037484
1757045312020799226,2.9580233113014387,-2.376318770273143,-27.24373258037484
1757045312030782463,2.9580233113014387,-2.376318770273143,-27.24373258037484
1757045312041059948,2.9580233113014387,-2.376318770273143,-27.24373258037484
1757045312051766871,2.9580233113014387,-2.376318770273143,-27.24373258037484
1757045312060877809,2.9580233113014387,-2.376318770273143,-27.24373258037484
1757045312070587319,2.9580233113014387,-2.376318770273143,-27.24373258037484
1757045312080523462,2.9580233113014387,-2.376318770273143,-27.24373258037484
1757045312090520503,2.9580233113014387,-2.376318770273143,-27.24373258037484
1757045312101953621,2.9580233113014387,-2.376318770273143,-27.24373258037484
1757045312111422522,2.9580233113014387,-2.376318770273143,-27.24373258037484
1757045312120832328,2.9580233113014387,-2.376318770273143,-27.24373258037484
1757045312130759799,2.9580233113014387,-2.376318770273143,-27.24373258037484
1757045312142227163,2.9580233113014387,-2.376318770273143,-27.24373258037484
1757045312153042127,2.9580233113014387,-2.376318770273143,-27.24373258037484
1757045312162151521,2.9580233113014387,-2.376318770273143,-27.24373258037484
1757045312170788090,2.9580233113014387,-2.376318770273143,-27.24373258037484
1757045312180753619,2.9580233113014387,-2.376318770273143,-27.24373258037484
1757045312190637958,2.9580233113014387,-2.376318770273143,-27.24373258037484
1757045312201272095,2.9580233113014387,-2.376318770273143,-27.24373258037484
1757045312210667150,2.9580233113014387,-2.376318770273143,-27.24373258037484
1757045312220744452,2.9580233113014387,-2.376318770273143,-27.24373258037484
1757045312230640568,2.9580233113014387,-2.376318770273143,-27.24373258037484
1757045312240790121,2.9580233113014387,-2.376318770273143,-27.24373258037484
1757045312251004924,2.9580233113014387,-2.376318770273143,-27.24373258037484
1757045312261160193,2.9580233113014387,-2.376318770273143,-27.24373258037484
1757045312270920081,2.9580233113014387,-2.376318770273143,-27.24373258037484
1757045312280595423,2.9580233113014387,-2.376318770273143,-27.24373258037484
1757045312292061767,2.9580233113014387,-2.376318770273143,-27.24373258037484
1757045312300826951,2.9580233113014387,-2.376318770273143,-27.24373258037484
1757045312310564288,2.9580233113014387,-2.376318770273143,-27.24373258037484
1757045312320688867,2.9580233113014387,-2.376318770273143,-27.24373258037484
1757045312331409866,2.9580233113014387,-2.376318770273143,-27.24373258037484
1757045312340494416,2.9580233113014387,-2.376318770273143,-27.24373258037484
1757045312350717840,2.9580233113014387,-2.376318770273143,-27.24373258037484
1757045312360625136,2.9580233113014387,-2.376318770273143,-27.24373258037484
1757045312369079135,2.958542134779339,-2.376311663413101,-27.243965837659598
1757045312371950639,2.958542134779339,-2.376311663413101,-27.243965837659598
1757045312380888827,2.958542134779339,-2.376311663413101,-27.243965837659598
1757045312390882702,2.958542134779339,-2.376311663413101,-27.243965837659598
1757045312401195855,2.958542134779339,-2.376311663413101,-27.243965837659598
1757045312410797439,2.958542134779339,-2.376311663413101,-27.243965837659598
1757045312422220169,2.958542134779339,-2.376311663413101,-27.243965837659598
1757045312430692142,2.958542134779339,-2.376311663413101,-27.243965837659598
1757045312441820721,2.958542134779339,-2.376311663413101,-27.243965837659598
1757045312451025242,2.958542134779339,-2.376311663413101,-27.243965837659598
1757045312460698488,2.958542134779339,-2.376311663413101,-27.243965837659598
1757045312471112762,2.958542134779339,-2.376311663413101,-27.243965837659598
1757045312480695676,2.958542134779339,-2.376311663413101,-27.243965837659598
1757045312491104533,2.958542134779339,-2.376311663413101,-27.243965837659598
1757045312501979581,2.958542134779339,-2.376311663413101,-27.243965837659598
1757045312510758200,2.958542134779339,-2.376311663413101,-27.243965837659598
1757045312520621001,2.958542134779339,-2.376311663413101,-27.243965837659598
1757045312530620568,2.958542134779339,-2.376311663413101,-27.243965837659598
1757045312541228731,2.958542134779339,-2.376311663413101,-27.243965837659598
1757045312550937843,2.958542134779339,-2.376311663413101,-27.243965837659598
1757045312561211560,2.958542134779339,-2.376311663413101,-27.243965837659598
1757045312571149649,2.958542134779339,-2.376311663413101,-27.243965837659598
1757045312580481327,2.958542134779339,-2.376311663413101,-27.243965837659598
1757045312590807252,2.958542134779339,-2.376311663413101,-27.243965837659598
1757045312600907559,2.958542134779339,-2.376311663413101,-27.243965837659598
1757045312611290256,2.958542134779339,-2.376311663413101,-27.243965837659598
1757045312621667946,2.958542134779339,-2.376311663413101,-27.243965837659598
1757045312630764950,2.958542134779339,-2.376311663413101,-27.243965837659598
1757045312641431906,2.958542134779339,-2.376311663413101,-27.243965837659598
1757045312650568615,2.958542134779339,-2.376311663413101,-27.243965837659598
1757045312660629890,2.958542134779339,-2.376311663413101,-27.243965837659598
1757045312670729006,2.9585340921098986,-2.3763250675953485,-27.2440675516248
1757045312681132099,2.9585340921098986,-2.3763250675953485,-27.2440675516248
1757045312690619046,2.9585340921098986,-2.3763250675953485,-27.2440675516248
1757045312700855782,2.9585340921098986,-2.3763250675953485,-27.2440675516248
1757045312710488172,2.9585340921098986,-2.3763250675953485,-27.2440675516248
1757045312721945619,2.9585340921098986,-2.3763250675953485,-27.2440675516248
1757045312730861303,2.9585340921098986,-2.3763250675953485,-27.2440675516248
1757045312740891967,2.9585340921098986,-2.3763250675953485,-27.2440675516248
1757045312750799587,2.9585340921098986,-2.3763250675953485,-27.2440675516248
1757045312760881431,2.9585340921098986,-2.3763250675953485,-27.2440675516248
1757045312770753651,2.9585340921098986,-2.3763250675953485,-27.2440675516248
1757045312780638205,2.9585340921098986,-2.3763250675953485,-27.2440675516248
1757045312792036468,2.9585340921098986,-2.3763250675953485,-27.2440675516248
1757045312800779167,2.9585340921098986,-2.3763250675953485,-27.2440675516248
1757045312810617508,2.9585340921098986,-2.3763250675953485,-27.2440675516248
1757045312820772983,2.9585340921098986,-2.3763250675953485,-27.2440675516248
1757045312831281849,2.9585340921098986,-2.3763250675953485,-27.2440675516248
1757045312840651513,2.9585340921098986,-2.3763250675953485,-27.2440675516248
1757045312850723208,2.9585340921098986,-2.3763250675953485,-27.2440675516248
1757045312860471424,2.9585340921098986,-2.3763250675953485,-27.2440675516248
1757045312868972398,2.9579242012223763,-2.3754818353040963,-27.24349774172605
1757045312870725417,2.9579242012223763,-2.3754818353040963,-27.24349774172605
1757045312880888387,2.9579242012223763,-2.3754818353040963,-27.24349774172605
1757045312891190469,2.9579242012223763,-2.3754818353040963,-27.24349774172605
1757045312900611284,2.9579242012223763,-2.3754818353040963,-27.24349774172605
1757045312910440498,2.9579242012223763,-2.3754818353040963,-27.24349774172605
1757045312921210467,2.9579242012223763,-2.3754818353040963,-27.24349774172605
1757045312930942227,2.9579242012223763,-2.3754818353040963,-27.24349774172605
1757045312940738208,2.9579242012223763,-2.3754818353040963,-27.24349774172605
1757045312950874099,2.9579242012223763,-2.3754818353040963,-27.24349774172605
1757045312960475679,2.9579242012223763,-2.3754818353040963,-27.24349774172605
1757045312971033941,2.9579242012223763,-2.3754818353040963,-27.24349774172605
1757045312980671558,2.9579242012223763,-2.3754818353040963,-27.24349774172605
1757045312991553974,2.9579242012223763,-2.3754818353040963,-27.24349774172605
1757045313002074314,2.9579242012223763,-2.3754818353040963,-27.24349774172605
1757045313010840843,2.9579242012223763,-2.3754818353040963,-27.24349774172605
1757045313021020241,2.9579242012223763,-2.3754818353040963,-27.24349774172605
1757045313031060081,2.9579242012223763,-2.3754818353040963,-27.24349774172605
1757045313040920283,2.9579242012223763,-2.3754818353040963,-27.24349774172605
1757045313050743471,2.9579242012223763,-2.3754818353040963,-27.24349774172605
1757045313060520758,2.9579242012223763,-2.3754818353040963,-27.24349774172605
1757045313070885257,2.9579242012223763,-2.3754818353040963,-27.24349774172605
1757045313080709888,2.9579242012223763,-2.3754818353040963,-27.24349774172605
1757045313090651484,2.9579242012223763,-2.3754818353040963,-27.24349774172605
1757045313100916001,2.9579242012223763,-2.3754818353040963,-27.24349774172605
1757045313110615940,2.9579242012223763,-2.3754818353040963,-27.24349774172605
1757045313121142257,2.9579242012223763,-2.3754818353040963,-27.24349774172605
1757045313131133777,2.9579242012223763,-2.3754818353040963,-27.24349774172605
1757045313141504142,2.9579242012223763,-2.3754818353040963,-27.24349774172605
1757045313150613848,2.9579242012223763,-2.3754818353040963,-27.24349774172605
1757045313160903903,2.9579242012223763,-2.3754818353040963,-27.24349774172605
1757045313170889268,2.9579242012223763,-2.3754818353040963,-27.24349774172605
1757045313180956835,2.9579242012223763,-2.3754818353040963,-27.24349774172605
1757045313190874034,2.9579242012223763,-2.3754818353040963,-27.24349774172605
1757045313200723101,2.9579242012223763,-2.3754818353040963,-27.24349774172605
1757045313210454828,2.9579242012223763,-2.3754818353040963,-27.24349774172605
1757045313220788449,2.9579242012223763,-2.3754818353040963,-27.24349774172605
1757045313230846651,2.9579242012223763,-2.3754818353040963,-27.24349774172605
1757045313241282278,2.9579242012223763,-2.3754818353040963,-27.24349774172605
1757045313250666263,2.9579242012223763,-2.3754818353040963,-27.24349774172605
1757045313260562925,2.9579242012223763,-2.3754818353040963,-27.24349774172605
1757045313272018803,2.9579242012223763,-2.3754818353040963,-27.24349774172605
1757045313281983772,2.9579242012223763,-2.3754818353040963,-27.24349774172605
1757045313291368548,2.9579242012223763,-2.3754818353040963,-27.24349774172605
1757045313300704145,2.9579242012223763,-2.3754818353040963,-27.24349774172605
1757045313310627404,2.9579242012223763,-2.3754818353040963,-27.24349774172605
1757045313320868160,2.9579242012223763,-2.3754818353040963,-27.24349774172605
1757045313330693157,2.9579242012223763,-2.3754818353040963,-27.24349774172605
1757045313340787767,2.9579242012223763,-2.3754818353040963,-27.24349774172605
1757045313351714690,2.9579242012223763,-2.3754818353040963,-27.24349774172605
1757045313360802881,2.9579242012223763,-2.3754818353040963,-27.24349774172605
1757045313370176431,2.957687587352206,-2.375431377040218,-27.242936675691496
1757045313372077528,2.957687587352206,-2.375431377040218,-27.242936675691496
1757045313380819302,2.957687587352206,-2.375431377040218,-27.242936675691496
1757045313390690875,2.957687587352206,-2.375431377040218,-27.242936675691496
1757045313401077636,2.957687587352206,-2.375431377040218,-27.242936675691496
1757045313410747723,2.957687587352206,-2.375431377040218,-27.242936675691496
1757045313420848168,2.957687587352206,-2.375431377040218,-27.242936675691496
1757045313432635715,2.957687587352206,-2.375431377040218,-27.242936675691496
1757045313442236343,2.957687587352206,-2.375431377040218,-27.242936675691496
1757045313451158526,2.957687587352206,-2.375431377040218,-27.242936675691496
1757045313460861303,2.957687587352206,-2.375431377040218,-27.242936675691496
1757045313472144754,2.957687587352206,-2.375431377040218,-27.242936675691496
1757045313481093863,2.957687587352206,-2.375431377040218,-27.242936675691496
1757045313491065246,2.957687587352206,-2.375431377040218,-27.242936675691496
1757045313500733660,2.957687587352206,-2.375431377040218,-27.242936675691496
1757045313510468949,2.957687587352206,-2.375431377040218,-27.242936675691496
1757045313521979557,2.957687587352206,-2.375431377040218,-27.242936675691496
1757045313530537993,2.957687587352206,-2.375431377040218,-27.242936675691496
1757045313540893227,2.957687587352206,-2.375431377040218,-27.242936675691496
1757045313550824260,2.957687587352206,-2.375431377040218,-27.242936675691496
1757045313560972131,2.957687587352206,-2.375431377040218,-27.242936675691496
1757045313570884987,2.957687587352206,-2.375431377040218,-27.242936675691496
1757045313580590380,2.957687587352206,-2.375431377040218,-27.242936675691496
1757045313590704896,2.957687587352206,-2.375431377040218,-27.242936675691496
1757045313600676649,2.957687587352206,-2.375431377040218,-27.242936675691496
1757045313611079502,2.957687587352206,-2.375431377040218,-27.242936675691496
1757045313620764532,2.957687587352206,-2.375431377040218,-27.242936675691496
1757045313630730691,2.957687587352206,-2.375431377040218,-27.242936675691496
1757045313641121139,2.957687587352206,-2.375431377040218,-27.242936675691496
1757045313651434307,2.957687587352206,-2.375431377040218,-27.242936675691496
1757045313660671247,2.957687587352206,-2.375431377040218,-27.242936675691496
1757045313670721274,2.957687587352206,-2.375431377040218,-27.242936675691496
1757045313680677626,2.957687587352206,-2.375431377040218,-27.242936675691496
1757045313690563146,2.957687587352206,-2.375431377040218,-27.242936675691496
1757045313701668922,2.957687587352206,-2.375431377040218,-27.242936675691496
1757045313711859842,2.957687587352206,-2.375431377040218,-27.242936675691496
1757045313721753185,2.957687587352206,-2.375431377040218,-27.242936675691496
1757045313732517725,2.957687587352206,-2.375431377040218,-27.242936675691496
1757045313740800812,2.957687587352206,-2.375431377040218,-27.242936675691496
1757045313752494151,2.957687587352206,-2.375431377040218,-27.242936675691496
1757045313762138669,2.957687587352206,-2.375431377040218,-27.242936675691496
1757045313771494757,2.957687587352206,-2.375431377040218,-27.242936675691496
1757045313780974839,2.9576715298404217,-2.3754582015633274,-27.243140100727985
1757045313790896464,2.9576233382575774,-2.375538669803351,-27.24334353707004
1757045313800920477,2.9575912070166472,-2.375592296419583,-27.243546926609973
1757045313810880827,2.957551018830992,-2.375659339038249,-27.243852090661402
1757045313820634305,2.957494726384631,-2.37575318210801,-27.244360700544163
1757045313830747611,2.9574383858823623,-2.3758469970903615,-27.2448693134392
1757045313840822924,2.957390052512583,-2.375927386387874,-27.245276208957296
1757045313850874367,2.9573094508271285,-2.3760613217353654,-27.245683061868206
1757045313860660136,2.957212654543038,-2.376222019528302,-27.24608995210335
1757045313870009270,2.957465337339987,-2.3762806065072217,-27.24683180763683
1757045313871557835,2.9573602728367216,-2.37645457843164,-27.247340429856674
1757045313881759917,2.957238956293109,-2.376655230736188,-27.247848994172163
1757045313890528017,2.957117540300518,-2.376855817055329,-27.2481541262778
1757045313900753019,2.956979858336705,-2.377083119116755,-27.248866141593318
1757045313911051746,2.956825797164807,-2.377337053769308,-27.249578159155707
1757045313920933362,2.9566715887490433,-2.3775908234968464,-27.250493411342863
1757045313930473540,2.956492734975416,-2.377884544233532,-27.251307095312413
1757045313941113370,2.9562974643575473,-2.3782046387412854,-27.2521203492801
1757045313951600178,2.9561018299101085,-2.3785247438139536,-27.25313745523287
1757045313961441804,2.9559058857305596,-2.378844624032355,-27.25415447945061
1757045313971188660,2.9556605081879876,-2.379244291432674,-27.255375111409368
1757045313981739142,2.9554146777283434,-2.37964360257918,-27.256595570862768
1757045313991243199,2.955151932178852,-2.380069225066826,-27.2580194768346
1757045314001904146,2.9548720929954095,-2.380521096846512,-27.259443527308644
1757045314011229841,2.9545751845162087,-2.38099900958981,-27.261070614216504
1757045314021293049,2.9542939714160936,-2.3814500198239856,-27.26269808020833
1757045314031942896,2.954028627905493,-2.3818740397852833,-27.26432543507761
1757045314042205515,2.953737641854444,-2.3823373582182623,-27.266054572417502
1757045314052062820,2.9534458738583473,-2.382800143046842,-27.267580183737923
1757045314061142814,2.9531784500498817,-2.383222883643251,-27.269207619904552
1757045314071575140,2.9529019711061295,-2.383658368202093,-27.27093670218824
1757045314081770817,2.952624720469394,-2.384093404053556,-27.272665903710287
1757045314091093590,2.952388857736649,-2.3844620896537068,-27.274089842358347
1757045314101152123,2.952144037480902,-2.3848435793497615,-27.27561543087999
1757045314111132445,2.9518986060531023,-2.385224740860568,-27.277344638773624
1757045314121229302,2.9516779938119124,-2.3855660594182635,-27.27876856115847
1757045314132256676,2.951448385456475,-2.3859201891491444,-27.28049765914405
1757045314141434795,2.9512352399558037,-2.3862476859505954,-27.28202318011572
1757045314151474510,2.951038658510958,-2.38654872666275,-27.283548919783954
1757045314161839157,2.950833047214746,-2.3868625485498725,-27.284972969732056
1757045314171227917,2.9506441764737255,-2.387149925962665,-27.286396900969685
1757045314181250650,2.9504893056400325,-2.3873848411208094,-27.287820883509163
1757045314191722867,2.9503427067311545,-2.387606521469533,-27.289143299395956
1757045314201371773,2.9501958497556267,-2.387827955048405,-27.290465400562045
1757045314210982224,2.9500919672723196,-2.3879841422173183,-27.29168594467551
1757045314221130007,2.94997053464686,-2.388166233632914,-27.292906630323458
1757045314231241730,2.949892340268147,-2.388283178647394,-27.293822000738764
1757045314241880628,2.9498488349315495,-2.3883481151173274,-27.29453403017314
1757045314251339089,2.949796579646629,-2.3884259918681754,-27.295347675491538
1757045314261390525,2.9497442638094573,-2.3885038219186185,-27.296161277350645
1757045314271137600,2.949709338326616,-2.388555689217003,-27.296975020275816
1757045314282118619,2.949656886239308,-2.388633448353925,-27.297585334106987
1757045314291428233,2.949604395152902,-2.3887111629557225,-27.298195549722024
1757045314301295075,2.949560609150105,-2.3887759042155543,-27.29890753168154
1757045314311390669,2.94952554478114,-2.3888276703510902,-27.29931436343148
1757045314321188640,2.9495167732963505,-2.3888406085067464,-27.29941607285605
1757045314331880203,2.9495079995566122,-2.388853547155029,-27.299314352544258
1757045314341025365,2.9494992285773947,-2.3888664845652574,-27.29941605610812
1757045314351167946,2.9494992285773947,-2.3888664845652574,-27.29941605610812
1757045314361267221,2.9494992285773947,-2.3888664845652574,-27.29941605610812
1757045314369646923,2.9491549820004748,-2.388952365067955,-27.2986671144663
1757045314371207291,2.9491549820004748,-2.388952365067955,-27.2986671144663
1757045314381912591,2.9491549820004748,-2.388952365067955,-27.2986671144663
1757045314391076986,2.949146217857283,-2.3889653104261974,-27.298565393035382
1757045314401378071,2.949137454963021,-2.388978256776244,-27.298463670815835
1757045314411605719,2.9491286937631753,-2.3889912034598506,-27.298361952978375
1757045314420972608,2.9491286937631753,-2.3889912034598506,-27.298361952978375
1757045314431533675,2.949119933655059,-2.3890041513674545,-27.298260232525656
1757045314441114390,2.949119933655059,-2.3890041513674545,-27.298260232525656
1757045314451080105,2.9491111757691106,-2.3890170988280595,-27.29815852258383
1757045314461494658,2.9491111757691106,-2.3890170988280595,-27.29815852258383
1757045314471158885,2.949102419040115,-2.3890300474159214,-27.298260234383847
1757045314482123236,2.949102419040115,-2.3890300474159214,-27.298260234383847
1757045314491117120,2.9490936629362445,-2.3890429922418908,-27.298361923629184
1757045314501278091,2.9490936629362445,-2.3890429922418908,-27.298361923629184
1757045314511574288,2.9490936629362445,-2.3890429922418908,-27.298361923629184
1757045314521398250,2.949084907097482,-2.3890559338399804,-27.298463594511514
1757045314532073815,2.94906738762826,-2.3890818228810082,-27.298463594511514
1757045314541322866,2.9490323473594664,-2.389133602928961,-27.298463594511514
1757045314552038155,2.949006070713276,-2.389172432710999,-27.298565285450906
1757045314561515140,2.948962272106132,-2.3892371410384166,-27.29826022923729
1757045314571148983,2.948953513975811,-2.3892500888603885,-27.298361942017642
1757045314581278750,2.9489272350780587,-2.3892889304755323,-27.298463656950233
1757045314591397203,2.948918474386597,-2.389301876408271,-27.298565368887417
1757045314601321490,2.948918474386597,-2.389301876408271,-27.298565368887417
1757045314611556158,2.9489097121383097,-2.3893148218046236,-27.298463654162905
1757045314621070276,2.9489097121383097,-2.3893148218046236,-27.298463654162905
1757045314631506961,2.9489097121383097,-2.3893148218046236,-27.298463654162905
1757045314641379480,2.9489097121383097,-2.3893148218046236,-27.298463654162905
1757045314651792221,2.9489184718795713,-2.3893018772759453,-27.298565355068654
1757045314661175448,2.9489184718795713,-2.3893018772759453,-27.298565355068654
1757045314671184075,2.9489184718795713,-2.3893018772759453,-27.298565355068654
1757045314681766515,2.9489184718795713,-2.3893018772759453,-27.298565355068654
1757045314691374609,2.9489184718795713,-2.3893018772759453,-27.298565355068654
1757045314701657106,2.9489097090957217,-2.389314823463926,-27.298667076012205
1757045314711096939,2.9488921811842075,-2.3893407136288434,-27.29887051453467
1757045314721151441,2.948874648050718,-2.3893666001613485,-27.29887051453467
1757045314731944064,2.948883414016218,-2.3893536577827947,-27.29897222656019
1757045314741328789,2.948883414016218,-2.3893536577827947,-27.29897222656019
1757045314751030561,2.948883414016218,-2.3893536577827947,-27.29897222656019
1757045314761391210,2.948883414016218,-2.3893536577827947,-27.29897222656019
1757045314771439112,2.948883414016218,-2.3893536577827947,-27.29897222656019
1757045314781355358,2.948883414016218,-2.3893536577827947,-27.29897222656019
1757045314790988976,2.948883414016218,-2.3893536577827947,-27.29897222656019
1757045314801305635,2.948883414016218,-2.3893536577827947,-27.29897222656019
1757045314811162700,2.948883414016218,-2.3893536577827947,-27.29897222656019
1757045314821326010,2.948883414016218,-2.3893536577827947,-27.29897222656019
1757045314831532925,2.948883414016218,-2.3893536577827947,-27.29897222656019
1757045314841541739,2.948883414016218,-2.3893536577827947,-27.29897222656019
1757045314851252125,2.948883414016218,-2.3893536577827947,-27.29897222656019
1757045314861219487,2.948883414016218,-2.3893536577827947,-27.29897222656019
1757045314872071927,2.948883414016218,-2.3893536577827947,-27.29897222656019
1757045314872097042,2.949923834901245,-2.3894246164742086,-27.298067540152122
1757045314880861131,2.949923834901245,-2.3894246164742086,-27.298067540152122
1757045314890655643,2.949923834901245,-2.3894246164742086,-27.298067540152122
1757045314900801305,2.949923834901245,-2.3894246164742086,-27.298067540152122
1757045314910776985,2.949923834901245,-2.3894246164742086,-27.298067540152122
1757045314920973815,2.949923834901245,-2.3894246164742086,-27.298067540152122
1757045314930952257,2.949923834901245,-2.3894246164742086,-27.298067540152122
1757045314940836770,2.949923834901245,-2.3894246164742086,-27.298067540152122
1757045314950593735,2.949923834901245,-2.3894246164742086,-27.298067540152122
1757045314961409245,2.949923834901245,-2.3894246164742086,-27.298067540152122
1757045314970797604,2.949923834901245,-2.3894246164742086,-27.298067540152122
1757045314981140993,2.949923834901245,-2.3894246164742086,-27.298067540152122
1757045314991153935,2.949923834901245,-2.3894246164742086,-27.298067540152122
1757045315001094320,2.949923834901245,-2.3894246164742086,-27.298067540152122
1757045315011113743,2.949923834901245,-2.3894246164742086,-27.298067540152122
1757045315020681710,2.949923834901245,-2.3894246164742086,-27.298067540152122
1757045315031552504,2.949923834901245,-2.3894246164742086,-27.298067540152122
1757045315040625865,2.949923834901245,-2.3894246164742086,-27.298067540152122
1757045315051118322,2.949923834901245,-2.3894246164742086,-27.298067540152122
1757045315061305928,2.949923834901245,-2.3894246164742086,-27.298067540152122
1757045315071357877,2.949923834901245,-2.3894246164742086,-27.298067540152122
1757045315080979456,2.949923834901245,-2.3894246164742086,-27.298067540152122
1757045315090618353,2.949923834901245,-2.3894246164742086,-27.298067540152122
1757045315100800237,2.949923834901245,-2.3894246164742086,-27.298067540152122
1757045315110972160,2.949915078115176,-2.3894375676855812,-27.2981692663013
1757045315121219528,2.949915078115176,-2.3894375676855812,-27.2981692663013
1757045315130862906,2.949915078115176,-2.3894375676855812,-27.2981692663013
1757045315140846545,2.949915078115176,-2.3894375676855812,-27.2981692663013
1757045315150742754,2.949915078115176,-2.3894375676855812,-27.2981692663013
1757045315160788169,2.949915078115176,-2.3894375676855812,-27.2981692663013
1757045315171085751,2.949915078115176,-2.3894375676855812,-27.2981692663013
1757045315181289007,2.949915078115176,-2.3894375676855812,-27.2981692663013
1757045315190721784,2.949915078115176,-2.3894375676855812,-27.2981692663013
1757045315200882348,2.949915078115176,-2.3894375676855812,-27.2981692663013
1757045315211000817,2.949915078115176,-2.3894375676855812,-27.2981692663013
1757045315221115929,2.949915078115176,-2.3894375676855812,-27.2981692663013
1757045315231081966,2.949915078115176,-2.3894375676855812,-27.2981692663013
1757045315241904112,2.949915078115176,-2.3894375676855812,-27.2981692663013
1757045315251008182,2.949915078115176,-2.3894375676855812,-27.2981692663013
1757045315261317059,2.949915078115176,-2.3894375676855812,-27.2981692663013
1757045315271327534,2.949915078115176,-2.3894375676855812,-27.2981692663013
1757045315281253330,2.949915078115176,-2.3894375676855812,-27.2981692663013
1757045315290922541,2.949915078115176,-2.3894375676855812,-27.2981692663013
1757045315301122093,2.949915078115176,-2.3894375676855812,-27.2981692663013
1757045315310942204,2.949915078115176,-2.3894375676855812,-27.2981692663013
1757045315320989690,2.949915078115176,-2.3894375676855812,-27.2981692663013
1757045315330996684,2.949915078115176,-2.3894375676855812,-27.2981692663013
1757045315341038657,2.949915078115176,-2.3894375676855812,-27.2981692663013
1757045315350569367,2.949915078115176,-2.3894375676855812,-27.2981692663013
1757045315362626167,2.949915078115176,-2.3894375676855812,-27.2981692663013
1757045315369126986,2.95085711525531,-2.3890621842771584,-27.297001058693592
1757045315370754778,2.95085711525531,-2.3890621842771584,-27.297001058693592
1757045315380788728,2.95085711525531,-2.3890621842771584,-27.297001058693592
1757045315391853018,2.95085711525531,-2.3890621842771584,-27.297001058693592
1757045315401056268,2.95085711525531,-2.3890621842771584,-27.297001058693592
1757045315410884126,2.95085711525531,-2.3890621842771584,-27.297001058693592
1757045315420782861,2.95085711525531,-2.3890621842771584,-27.297001058693592
1757045315430718320,2.95085711525531,-2.3890621842771584,-27.297001058693592
1757045315441627677,2.95085711525531,-2.3890621842771584,-27.297001058693592
1757045315451007361,2.95085711525531,-2.3890621842771584,-27.297001058693592
1757045315461114696,2.95085711525531,-2.3890621842771584,-27.297001058693592
1757045315470784895,2.95085711525531,-2.3890621842771584,-27.297001058693592
1757045315480943493,2.95085711525531,-2.3890621842771584,-27.297001058693592
1757045315491117152,2.95085711525531,-2.3890621842771584,-27.297001058693592
1757045315501899172,2.95085711525531,-2.3890621842771584,-27.297001058693592
1757045315511509425,2.95085711525531,-2.3890621842771584,-27.297001058693592
1757045315521132470,2.95085711525531,-2.3890621842771584,-27.297001058693592
1757045315531361122,2.95085711525531,-2.3890621842771584,-27.297001058693592
1757045315541278350,2.95085711525531,-2.3890621842771584,-27.297001058693592
1757045315551006895,2.95085711525531,-2.3890621842771584,-27.297001058693592
1757045315561089285,2.95085711525531,-2.3890621842771584,-27.297001058693592
1757045315570938359,2.95085711525531,-2.3890621842771584,-27.297001058693592
1757045315581110282,2.9508396306384213,-2.3890881034050593,-27.297001058693592
1757045315591143293,2.9508221548038107,-2.389114009514146,-27.297204393440182
1757045315601174961,2.95080466516973,-2.3891399247118352,-27.29740782743089
1757045315611546460,2.9507609270424258,-2.3892047050878316,-27.297712984437528
1757045315622316623,2.9507521815270636,-2.389217649518562,-27.297814632966087
1757045315631534819,2.9507171739340334,-2.38926945367882,-27.298018047795956
1757045315641416955,2.9506996637572014,-2.389295353842417,-27.298018047795956
1757045315651597926,2.9506996637572014,-2.389295353842417,-27.298018047795956
1757045315660862466,2.9506996637572014,-2.389295353842417,-27.298018047795956
1757045315670564727,2.9506996637572014,-2.389295353842417,-27.298018047795956
1757045315681218389,2.9506996637572014,-2.389295353842417,-27.298018047795956
1757045315691210411,2.9506996637572014,-2.389295353842417,-27.298018047795956
1757045315701590900,2.9506996637572014,-2.389295353842417,-27.298018047795956
1757045315710746860,2.9506996637572014,-2.389295353842417,-27.298018047795956
1757045315720661754,2.9506996637572014,-2.389295353842417,-27.298018047795956
1757045315731069383,2.950690907954049,-2.389308304981417,-27.298119769972814
1757045315740971707,2.9506821537573424,-2.3893212509058754,-27.298221458186777
1757045315751063490,2.950673394910009,-2.389334200869722,-27.298323185125064
1757045315760919866,2.9506558744586466,-2.3893600991956934,-27.298323185125064
1757045315770672281,2.9506558744586466,-2.3893600991956934,-27.298323185125064
1757045315781343857,2.9506558744586466,-2.3893600991956934,-27.298323185125064
1757045315790854880,2.9506558744586466,-2.3893600991956934,-27.298323185125064
1757045315801162044,2.9506558744586466,-2.3893600991956934,-27.298323185125064
1757045315810931111,2.9506558744586466,-2.3893600991956934,-27.298323185125064
1757045315820692730,2.9506558744586466,-2.3893600991956934,-27.298323185125064
1757045315830691868,2.9506558744586466,-2.3893600991956934,-27.298323185125064
1757045315841096953,2.9506558744586466,-2.3893600991956934,-27.298323185125064
1757045315850955604,2.9506558744586466,-2.3893600991956934,-27.298323185125064
1757045315861166278,2.9506558744586466,-2.3893600991956934,-27.298323185125064
1757045315869320906,2.9512069960802374,-2.3884101175741432,-27.298294764092276
1757045315870813384,2.9512069960802374,-2.3884101175741432,-27.298294764092276
1757045315880862852,2.9512069960802374,-2.3884101175741432,-27.298294764092276
1757045315891345584,2.9512069960802374,-2.3884101175741432,-27.298294764092276
1757045315900965206,2.9512069960802374,-2.3884101175741432,-27.298294764092276
1757045315911059000,2.9512069960802374,-2.3884101175741432,-27.298294764092276
1757045315920970006,2.951198237799206,-2.3884230646554356,-27.29839647343014
1757045315930810209,2.951198237799206,-2.3884230646554356,-27.29839647343014
1757045315941321308,2.951198237799206,-2.3884230646554356,-27.29839647343014
1757045315951095022,2.9511894777987195,-2.3884360114409726,-27.2982947594169
1757045315961158013,2.9511894777987195,-2.3884360114409726,-27.2982947594169
1757045315970939282,2.9511894777987195,-2.3884360114409726,-27.2982947594169
1757045315980599808,2.9511894777987195,-2.3884360114409726,-27.2982947594169
1757045315991208597,2.9511894777987195,-2.3884360114409726,-27.2982947594169
1757045316000679941,2.9511894777987195,-2.3884360114409726,-27.2982947594169
1757045316011042600,2.9511894777987195,-2.3884360114409726,-27.2982947594169
1757045316020717947,2.9511894777987195,-2.3884360114409726,-27.2982947594169
1757045316031290405,2.9511894777987195,-2.3884360114409726,-27.2982947594169
1757045316040840437,2.9511894777987195,-2.3884360114409726,-27.2982947594169
1757045316050627096,2.9511894777987195,-2.3884360114409726,-27.2982947594169
1757045316061492195,2.9511894777987195,-2.3884360114409726,-27.2982947594169
1757045316071364830,2.9511894777987195,-2.3884360114409726,-27.2982947594169
1757045316080869618,2.9511894777987195,-2.3884360114409726,-27.2982947594169
1757045316091035936,2.9511894777987195,-2.3884360114409726,-27.2982947594169
1757045316100862646,2.9511894777987195,-2.3884360114409726,-27.2982947594169
1757045316110758554,2.9511894777987195,-2.3884360114409726,-27.2982947594169
1757045316120883841,2.9511894777987195,-2.3884360114409726,-27.2982947594169
1757045316130822444,2.9511894777987195,-2.3884360114409726,-27.2982947594169
1757045316141187117,2.9511894777987195,-2.3884360114409726,-27.2982947594169
1757045316151465280,2.951180718212869,-2.388448960451267,-27.298396483908245
1757045316162827408,2.951180718212869,-2.388448960451267,-27.298396483908245
1757045316171038245,2.951180718212869,-2.388448960451267,-27.298396483908245
1757045316181143972,2.951180718212869,-2.388448960451267,-27.298396483908245
1757045316191927970,2.951180718212869,-2.388448960451267,-27.298396483908245
1757045316200835542,2.951180718212869,-2.388448960451267,-27.298396483908245
1757045316210729344,2.951180718212869,-2.388448960451267,-27.298396483908245
1757045316220929314,2.951180718212869,-2.388448960451267,-27.298396483908245
1757045316230866011,2.951180718212869,-2.388448960451267,-27.298396483908245
1757045316240934283,2.951180718212869,-2.388448960451267,-27.298396483908245
1757045316250974988,2.951180718212869,-2.388448960451267,-27.298396483908245
1757045316260719495,2.951180718212869,-2.388448960451267,-27.298396483908245
1757045316270739533,2.951180718212869,-2.388448960451267,-27.298396483908245
1757045316280844191,2.951180718212869,-2.388448960451267,-27.298396483908245
1757045316290990150,2.9511719576687803,-2.3884619080399254,-27.298498204231784
1757045316300984379,2.9511544345631764,-2.388487800523833,-27.298498204231784
1757045316311339279,2.95111938953652,-2.388539583741332,-27.298701630845077
1757045316321425507,2.951084335247195,-2.388591357951894,-27.29890505008458
1757045316331009255,2.9510405041448395,-2.388656066913695,-27.299210179478255
1757045316341203736,2.9509791126027696,-2.388746641262098,-27.299515310657142
1757045316351254852,2.9508825966832983,-2.3888889430423985,-27.299820442060646
1757045316361185285,2.9508123713202616,-2.388992414400224,-27.300023864130676
1757045316369487369,2.951009875554533,-2.3885885623157357,-27.298548755966415
1757045316371275637,2.9509047471148278,-2.388743885239986,-27.29895555311072
1757045316380738818,2.950799670749402,-2.38889899525672,-27.299361904558143
1757045316390742446,2.9506681162018307,-2.3890930215876067,-27.299666970335437
1757045316400976167,2.9505189334490525,-2.3893129028507025,-27.300175483253145
1757045316411048803,2.9503608484297863,-2.389545650379786,-27.300582315310763
1757045316420905196,2.95018511578491,-2.389804154060198,-27.30098909511912
1757045316430844811,2.9499916698858653,-2.3900884652195553,-27.301395926108285
1757045316441237271,2.9497717050472936,-2.390411469153101,-27.301904484571132
1757045316451291892,2.949551586161594,-2.3907343462317208,-27.30241301949043
1757045316461158367,2.9493136619078113,-2.3910829597303125,-27.3029215940787
1757045316470798459,2.949057977848064,-2.3914571865102174,-27.30343006006925
1757045316480959201,2.948793226798899,-2.3918442613246826,-27.3040403425561
1757045316491067005,2.948484097378539,-2.3922956274004763,-27.30454887454163
1757045316500950376,2.9481570373838104,-2.3927726537470058,-27.305260870323156
1757045316511205347,2.947829638255829,-2.3932494464890106,-27.30597286518138
1757045316521031182,2.9474754691548224,-2.3937644383045313,-27.30698959071957
1757045316530813739,2.9470940183767658,-2.3943178939223135,-27.308108447310502
1757045316541133249,2.9467030972859263,-2.394883734276502,-27.309328911896287
1757045316552223468,2.9462847347008116,-2.395487717361583,-27.310447805949007
1757045316561919065,2.945847880222626,-2.396116891766247,-27.31177008973877
1757045316570832339,2.945392333347283,-2.3967711393563484,-27.313092362195988
1757045316580801909,2.944909121886349,-2.397463165177259,-27.314516206926147
1757045316591024122,2.944406894123489,-2.39818024764999,-27.315940330278377
1757045316601278789,2.9438946760322966,-2.398909382284469,-27.31726268676072
1757045316611020407,2.9433635876633146,-2.3996632571224485,-27.318584794724107
1757045316621101227,2.9428044369915107,-2.4004547414766932,-27.32000863109117
1757045316632451238,2.9422260372518205,-2.4012710044217687,-27.321432588676018
1757045316641187799,2.941637408061383,-2.4020992011257354,-27.32295828879055
1757045316651537805,2.941047534327507,-2.40292647305834,-27.32468736179611
1757045316660963532,2.940438072599018,-2.4037780973385416,-27.326212925629186
1757045316671853800,2.9397999024094177,-2.4046669686497517,-27.327636924647383
1757045316681385651,2.9391331216962793,-2.405592903943213,-27.329365913451042
1757045316691082147,2.9384554974934822,-2.4065304745126577,-27.330993407560214
1757045316701231982,2.937757958671323,-2.407492298134237,-27.332620981569427
1757045316710914067,2.937040496752977,-2.4084782130042313,-27.33424846739578
1757045316720927740,2.9362938172803035,-2.409500775653912,-27.335977572844357
1757045316731204506,2.9355175736261754,-2.410559975490448,-27.337605127528516
1757045316740959602,2.934739619683913,-2.4116178934267145,-27.339436096919915
1757045316750614882,2.9339412623043084,-2.412699402824226,-27.34126683453508
1757045316760890103,2.9330943853866858,-2.41384225536282,-27.342792466786484
1757045316770950531,2.932254963428572,-2.414971442051208,-27.344623504571484
1757045316784242907,2.9313949085220186,-2.4161239704949025,-27.346454259324904
1757045316790947053,2.930495401171332,-2.4173247749807256,-27.34828472617505
1757045316801094072,2.929603060753086,-2.418511478683777,-27.350013557172364
1757045316810824183,2.9287179565527413,-2.419684332353886,-27.351844349172783
1757045316821199450,2.9278495011503054,-2.4208307534938402,-27.35387875716009
1757045316831774091,2.926959803352011,-2.4220002652560275,-27.35611656011405
1757045316840854289,2.926039043600841,-2.4232050037456725,-27.358456002571366
1757045316850937229,2.9250870196201633,-2.4244446272466287,-27.360693457844363
1757045316860795239,2.9241226522655537,-2.4256945238100585,-27.362829264212642
1757045316869127808,2.924343176046529,-2.4256309985129536,-27.36373455123908
1757045316870941818,2.9233653264816164,-2.4268904312817376,-27.365972291153287
1757045316881081583,2.9223654601514992,-2.42817228887814,-27.36841339409603
1757045316891104680,2.9213431499317863,-2.4294763434902893,-27.370854567262686
1757045316901020162,2.9203177283486643,-2.430777810994814,-27.373092158743205
1757045316911591421,2.919231090647802,-2.4321506438936944,-27.375329954328713
1757045316921084369,2.918131682485797,-2.433533241584686,-27.37746597663363
1757045316935750191,2.917029238564952,-2.434913594202238,-27.37960216366032
1757045316941027697,2.915877784402077,-2.436349012744653,-27.38142866504362
1757045316950826983,2.914730688306692,-2.4377736594444355,-27.38336136028931
1757045316961788407,2.9135612655625382,-2.439220302370266,-27.385090495454865
1757045316972369399,2.9123695635821862,-2.440689303118305,-27.386819751595784
1757045316981528360,2.911195112658663,-2.4421319325405717,-27.388955800523
1757045316990958406,2.9099977024890458,-2.4435963636944433,-27.391092009984725
1757045317000772343,2.908827463783796,-2.445021341426103,-27.393328927336363
1757045317010446857,2.9076635260980077,-2.446432199911179,-27.395668444574866
1757045317021143321,2.9064663697278035,-2.4478764278163685,-27.397906228787086
1757045317031065515,2.9052571343855504,-2.4493286012370876,-27.40044674279619
1757045317040633732,2.9040029430093517,-2.4508270046594323,-27.402989637356125
1757045317050791700,2.902755066830225,-2.4523101840198054,-27.405430703772645
1757045317060375594,2.9014731670147764,-2.4538262746689727,-27.40797373672819
1757045317070931252,2.9001873655330703,-2.4553391597445544,-27.410516869262867
1757045317080707511,2.8988773884052996,-2.4568725702498657,-27.41306004639945
1757045317090951261,2.8975329903695406,-2.4584381927524537,-27.41570489206791
1757045317100819459,2.8961948785020026,-2.4599881814993294,-27.418247621220022
1757045317110634658,2.894832321986891,-2.4615583960101524,-27.420790384863235
1757045317122083310,2.8934451341801664,-2.4631488080254558,-27.42312988505391
1757045317130527166,2.892043932525996,-2.4647477201391816,-27.425571091980906
1757045317140689866,2.8906283747159818,-2.466355080821471,-27.428114241218605
1757045317150968222,2.889157085479651,-2.468017182893686,-27.43035196393021
1757045317160845362,2.887702906660806,-2.4696525672761274,-27.432793029800823
1757045317170757378,2.886202954612391,-2.4713311590526814,-27.435030857893572
1757045317181636128,2.8846678520428735,-2.473041369402482,-27.43716706491059
1757045317190850596,2.8831396654694235,-2.474736575928817,-27.439608287566866
1757045317200706979,2.88161778286842,-2.4764165248787324,-27.441947881090204
1757045317210965451,2.880134193620931,-2.4780465226118307,-27.444287272297338
1757045317221955298,2.8786046891540025,-2.479719089675504,-27.446626526439864
1757045317230420877,2.877092280348388,-2.4813652132303603,-27.448966007180807
1757045317240546984,2.8755866746717222,-2.48299625667415,-27.451203701701715
1757045317250644928,2.8740774697318563,-2.4846238765429947,-27.453441326921645
1757045317260912526,2.872586167523482,-2.486224988220454,-27.455475213480412
1757045317270861102,2.8710594999526986,-2.4878573996376083,-27.45781431444905
1757045317280699251,2.8695288257272744,-2.4894864403902646,-27.46015370956179
1757045317290628138,2.8679727322770705,-2.491134789615951,-27.462696777394793
1757045317300755319,2.866369474883799,-2.492824470046682,-27.46503630480636
1757045317312201344,2.8647839051533057,-2.494487698947408,-27.467375739132184
1757045317320664600,2.8631727840254415,-2.4961698336069325,-27.469511796713455
1757045317330374925,2.8615364124298464,-2.497871042255826,-27.471851269824317
1757045317340764062,2.8598960886865994,-2.499568393892683,-27.47419070970091
1757045317350841642,2.858230085248105,-2.5012842667423696,-27.47653005782727
1757045317361417946,2.8565162360095995,-2.5030411752339456,-27.478869646035605
1757045317369250133,2.8556296068330242,-2.5034749497124564,-27.477363157068037
1757045317370819203,2.8539360847544195,-2.505208129278137,-27.479702829368474
1757045317380822311,2.852216836896254,-2.5069594211568953,-27.482042190322705
1757045317390558473,2.8504495580120204,-2.508751235138188,-27.484585020122797
1757045317400623238,2.8487109127608705,-2.5105050752369893,-27.487025899841303
1757045317411591406,2.8469898632459483,-2.512232711125066,-27.489263621029334
1757045317420550578,2.84523180997473,-2.513989611835385,-27.491603017871196
1757045317430377595,2.8434808436629906,-2.5157312622720096,-27.493637148815537
1757045317440797914,2.8417152950898608,-2.517480287202424,-27.495772912124785
1757045317451467538,2.8399123380181397,-2.5192587569851868,-27.498010743836577
1757045317461022475,2.8381167598336425,-2.521022037551176,-27.500146617567765
1757045317470834924,2.8362726938946685,-2.5228252129243076,-27.502485935249926
1757045317481823727,2.83437958569724,-2.5246676999007764,-27.504621859211085
1757045317490420561,2.832471352086664,-2.526516987669102,-27.506859457765305
1757045317500716157,2.8305362265023386,-2.528383958177299,-27.50889391199094
1757045317510835676,2.8285521838299204,-2.530290344603406,-27.510928398692066
1757045317520565145,2.8265645666056187,-2.5321924036288443,-27.512962578511473
1757045317531185630,2.824561766433249,-2.53410120227615,-27.515098470193728
1757045317540795578,2.8224979743185785,-2.5360597352817695,-27.51692943695799
1757045317551606719,2.8204307179223984,-2.5380143744485752,-27.518963728093794
1757045317560607195,2.818325342628843,-2.5399969595225724,-27.520692880277345
1757045317570637386,2.816193633554242,-2.5419973991518567,-27.522422122420917
1757045317581177137,2.8140587081914052,-2.5439939253267383,-27.524151170380065
1757045317590426949,2.811897270812126,-2.5460082505239816,-27.52588037258949
1757045317603131646,2.8097326142705583,-2.548018592959679,-27.527405955455162
1757045317610882607,2.8075531429307183,-2.5500365100673252,-27.529033453642832
1757045317621859184,2.8053704390763623,-2.552050832425429,-27.53045748274917
1757045317632847980,2.8031849653000465,-2.5540619558746753,-27.531881449098837
1757045317640874046,2.8009935977045326,-2.556072747640256,-27.5331986033556
1757045317650884511,2.798791936097169,-2.558087649982401,-27.534520348645994
1757045317661650989,2.796575213954726,-2.560110957935428,-27.53553746962127
1757045317670707441,2.7943678525144957,-2.5621216101355384,-27.53665637296823
1757045317680560109,2.792146900167894,-2.564140099825233,-27.537470038032584
1757045317691709630,2.789924331647409,-2.566156758629564,-27.5382836937744
1757045317701959562,2.7876769417486185,-2.5681926076190726,-27.53889393894999
1757045317710647441,2.7854164087374382,-2.5702378524942753,-27.539402546407175
1757045317720444355,2.783189500784613,-2.5722506158537928,-27.539809455841475
1757045317730684704,2.78093898110146,-2.5742830571361,-27.54001287326636
1757045317740666871,2.7786651995327056,-2.5763356665923567,-27.540623029742783
1757045317750695535,2.7764250235794563,-2.578355459898893,-27.541334867633037
1757045317760512034,2.7741945775596233,-2.580363603915732,-27.541945136820843
1757045317770680612,2.7719279623084985,-2.5824018091544696,-27.542860570601388
1757045317780527979,2.769717541205275,-2.5843858263019706,-27.54387776854016
1757045317790902768,2.76751698929127,-2.586356947066344,-27.544793146113438
1757045317800810959,2.765314568543837,-2.588326111174926,-27.545505127601814
1757045317811829650,2.763087285305878,-2.5903146529642553,-27.546217153900475
1757045317820559058,2.7608817476356577,-2.592280959691682,-27.54692923710693
1757045317831866923,2.758639917178316,-2.59427675919583,-27.547539556686537
1757045317841157766,2.7563851983793533,-2.5962815672121033,-27.548048153661274
1757045317850552914,2.754141139485545,-2.598274854121374,-27.548455032783977
1757045317860711973,2.751885225639307,-2.6002770297086184,-27.548760104506698
1757045317869638340,2.7524705786574013,-2.598860074065175,-27.548732105925197
1757045317880536765,2.747979511662322,-2.6028433654150205,-27.548935546375272
1757045317891563440,2.7457105359386684,-2.604855185471352,-27.548935546375272
1757045317900561344,2.743429673117922,-2.606877545393798,-27.54903726370041
1757045317910626368,2.7411488156604653,-2.608899486200995,-27.548935555786876
1757045317920600034,2.738844531887313,-2.6109426126100117,-27.548833837249198
1757045317930395585,2.7365172171756234,-2.6130065826134596,-27.548935549106375
1757045317941721589,2.7342128232623497,-2.6150498067072996,-27.549037272506595
1757045317952627143,2.7318498306215893,-2.617144558901076,-27.549444148624605
1757045317960742941,2.7294648644489174,-2.619257057911353,-27.550053879144315
1757045317970224083,2.7270763963566025,-2.6213700612716644,-27.550664175459303
1757045317981649035,2.7246517267517194,-2.623512454515962,-27.551172707254935
1757045317991525839,2.722225574222668,-2.625653962026693,-27.551274430123602
1757045318000521202,2.719787555416007,-2.6278055024347062,-27.551477869757292
1757045318012446856,2.7173725608095265,-2.6299358503150625,-27.551477869757292
1757045318021375323,2.7149810512047923,-2.632045481286339,-27.55127443467176
1757045318034041013,2.7125665542959925,-2.6341762637079054,-27.551071001729508
1757045318040637094,2.7101524569430993,-2.6363075672601806,-27.550664130120474
1757045318051529366,2.7077859498718415,-2.6383985693559286,-27.550053787652057
1757045318063892785,2.7054444981199484,-2.640469979205529,-27.54924012297938
1757045318071529658,2.7031045110460132,-2.6425434898280464,-27.5484263812686
1757045318081696957,2.700789622621333,-2.644598125286468,-27.547612649253704
1757045318091496235,2.698499857530793,-2.6466337954331483,-27.54679894738431
1757045318101839089,2.696199866942621,-2.648681909479572,-27.546086893648283
1757045318112047119,2.6939014148836034,-2.650731589757769,-27.545374864564728
1757045318121382379,2.691581195523212,-2.652803649109778,-27.544866292615538
1757045318131783827,2.68927370508939,-2.6548664513660674,-27.544459438712767
1757045318141595369,2.6869671085809754,-2.6569301435245043,-27.54405259441851
1757045318151772599,2.684684671730424,-2.658973892765234,-27.543645755363617
1757045318161971532,2.6823915134316865,-2.6610289238313607,-27.543340637745246
1757045318171436042,2.6800997050922506,-2.6630840063207364,-27.542832268718676
1757045318181879360,2.6778428629477307,-2.665109805135653,-27.542425399784175
1757045318191843644,2.6755636051678153,-2.6671573999675204,-27.54201853403745
1757045318201448854,2.6732970102283606,-2.6691952860773958,-27.541509997834844
1757045318211491214,2.6710429079431814,-2.671224013967045,-27.541103139591602
1757045318221692391,2.6687781471429908,-2.6732640031272927,-27.5405945961407
1757045318231335405,2.666525838739118,-2.6752948514305532,-27.539984291389462
1757045318241501823,2.6642630190513943,-2.6773376826587496,-27.539272222703204
1757045318251750447,2.662013729978228,-2.6793712075861627,-27.538458603062676
1757045318261703251,2.6597541830935514,-2.6814173498385503,-27.53774658273005
1757045318272292999,2.6575209458106905,-2.6834425632333874,-27.536831821180222
1757045318282055319,2.65529985017119,-2.685460471701905,-27.536018233336836
1757045318291582657,2.65309157300402,-2.6874700163435605,-27.53510278796596
1757045318301364482,2.650873525574039,-2.6894921670553664,-27.534085599480946
1757045318311698119,2.648680520727269,-2.691495575494446,-27.53306836521586
1757045318321379569,2.6464673810885957,-2.6935215119341454,-27.531848174203045
1757045318331445589,2.6442678030563145,-2.695539972390005,-27.53072944913001
1757045318341460227,2.6420702436068346,-2.6975611138619735,-27.529610601409388
1757045318351303131,2.639886398507265,-2.699574156827921,-27.52839001674339
1757045318362459129,2.637704944717467,-2.701589926147713,-27.52737283142457
1757045318368783266,2.637895571182876,-2.699395758062505,-27.52897368352788
1757045318371251266,2.635712960184885,-2.701410236299505,-27.52795650704407
1757045318382015979,2.6335095394006776,-2.703448075720042,-27.526939373618195
1757045318391936235,2.631342648736794,-2.705456223243828,-27.5260239789582
1757045318401848627,2.629200844169462,-2.7074447699903934,-27.52510872802684
1757045318411892425,2.6270833491399137,-2.709414358396654,-27.524193304643585
1757045318421409441,2.6249680067522956,-2.7113855593981695,-27.523074638271684
1757045318432088255,2.622888641544821,-2.713327585299945,-27.522057426041847
1757045318441932140,2.6208342180568946,-2.715250233202487,-27.521040281514217
1757045318451964028,2.6187819673047996,-2.7171747671391984,-27.520023244061125
1757045318461715644,2.6167200427149875,-2.7191123178704135,-27.519107803040946
1757045318471465985,2.6147166326124545,-2.720998340070587,-27.518294008508466
1757045318481763291,2.6127148667825058,-2.722885889441897,-27.51768369577315
1757045318492152663,2.610725704467268,-2.724763849185657,-27.517175123309766
1757045318501900160,2.608693122201728,-2.726684757543803,-27.516666818291487
1757045318511259750,2.6066605164675916,-2.7286076449773975,-27.515954840939248
1757045318521195297,2.6046063930293246,-2.7305536618286466,-27.515242797068176
1757045318531571044,2.602519622390853,-2.7325334290522654,-27.514225586614494
1757045318541509968,2.6004349708197103,-2.7345152189269437,-27.5132084269776
1757045318551502179,2.5983523609604924,-2.7364991045396847,-27.511987849969923
1757045318561469128,2.5962382117354084,-2.7385179622669127,-27.51066552924503
1757045318571212517,2.5941494708462667,-2.740517844171821,-27.50975014403984
1757045318582207406,2.5920624535455894,-2.7425197407870114,-27.509038140941552
1757045318591529015,2.589932099318103,-2.7445661212198633,-27.50852964631977
1757045318601454328,2.587802454507993,-2.746613903353126,-27.508021072549887
1757045318612087772,2.585730101478271,-2.7486086253909625,-27.507410765709864
1757045318622566203,2.5837155606267665,-2.7505500708927824,-27.50669885186808
1757045318631538580,2.581680692687221,-2.7525139019390323,-27.50578388643355
1757045318642461842,2.579669251157422,-2.7544586820757986,-27.505071950703815
1757045318651527681,2.577694644439248,-2.7563705699723786,-27.504462264010623
1757045318662129149,2.5757191822736742,-2.758285621053974,-27.503851952793223
1757045318671522213,2.573756456326713,-2.7601906503795743,-27.50334345066026
1757045318681651991,2.571805605854156,-2.7620860808335093,-27.502733153145186
1757045318691647924,2.5698559829232184,-2.763982633048103,-27.502122877667475
1757045318701411031,2.567863707956412,-2.7659230440542086,-27.501309578106632
1757045318712032624,2.5658494678913857,-2.767888043062076,-27.50029235949717
1757045318721640195,2.5638513630893804,-2.769841272057035,-27.499378215261416
1757045318731345983,2.5618417988832967,-2.7718092987745746,-27.498361440374886
1757045318741803513,2.55979995201756,-2.7738130121866473,-27.497242535708338
1757045318751451809,2.5577380536411654,-2.775840936374817,-27.496123628869725
