%time,field.x,field.y,field.theta
1757045313493688721,2.9699211244987724,-3.1597394673714394,-2.145102032013039
1757045313514797400,2.9699211244987724,-3.1597394673714394,0.43798526093856793
1757045313537369924,2.9630728511838518,-3.1711796997228134,-2.1974619095728656
1757045313560330194,2.9699211244987724,-3.1597394673714394,0.43798526093856793
1757045313583437493,2.9699211244987724,-3.1597394673714394,-2.1800086170529234
1757045313609109714,2.9310877988877166,-3.1986521234620144,0.43798526093856793
1757045313641078070,2.9242395255727964,-3.2100923558133885,-2.1974619095728656
1757045313666395336,2.93567975792417,-3.2169406291283087,0.4205319684186257
1757045313687208525,2.9242395255727964,-3.2100923558133885,-2.162555324532981
1757045313713082552,2.9173912522578758,-3.221532588164762,0.38562538337873775
1757045313744555379,2.9173912522578758,-3.221532588164762,-2.145102032013039
1757045313771406940,2.8785579266468204,-3.2604452442553367,0.38562538337873775
1757045313797108590,2.884986533486171,-3.24908282385897,-2.1106023083516945
1757045313824394871,2.883969422135699,-3.2492230007779215,0.34929477348618576
1757045313852147475,2.8826291684935095,-3.2494331497231457,-2.1129418331498613
1757045313883199853,2.8737627978288134,-3.2612697113628917,0.345806479858183
1757045313907599525,2.854288547998222,-3.266095672470715,-2.116124912874973
1757045313929252737,2.856987379617013,-3.2847577767896525,0.36061535520742893
1757045313953575636,2.854019382777109,-3.28542495700401,-2.085489641474638
1757045313979478797,2.826214742721816,-3.3016321059723692,0.3557336551409236
1757045314005455165,2.828710925906487,-3.29104900446041,-2.091795713550411
1757045314031925969,2.8180971199392313,-3.3028651837192995,0.38331727138184846
1757045314057205321,2.81275221914593,-3.3035394015408532,-2.0999323699796903
1757045314084306667,2.8216208961355544,-3.281642003394411,0.40825603291977686
1757045314104829980,2.8184934428529576,-3.2820018757080014,-2.1254209096417043
1757045314132244502,2.8022442736902993,-3.2751422346474435,0.3829709849660716
1757045314161782307,2.7991219972862478,-3.2753113728233822,-2.1857142761054966
1757045314188467361,2.8353174732796296,-3.238359348757742,0.35819446808101674
1757045314210520557,2.843875952137531,-3.2458789882134838,-2.1751774643636423
1757045314231837333,2.822194516833774,-3.249628305675034,0.33474005833146947
1757045314256305038,2.8207847728283655,-3.2495752911569946,-2.162606446773193
1757045314281602853,2.8082426725439724,-3.2420377144734047,0.3664936238343053
1757045314307025530,2.7954056310145505,-3.2345054154696213,-2.2010728880030825
1757045314330222024,2.794931726833689,-3.2344916162517574,0.3989591562939552
1757045314358697140,2.7949141962776363,-3.234517494899248,-2.219034704949607
1757045314385176546,2.784162325051253,-3.227244033102858,0.41716140720365047
1757045314411133602,2.7693700787255904,-3.249388537549573,-2.21808231965732
1757045314432675793,2.765953937133196,-3.23093654694177,0.36520841158446515
1757045314459817941,2.766030813089494,-3.2309681198503353,-2.2003238789053725
1757045314486693468,2.736377930319029,-3.227065719713667,0.3652084097262751
1757045314513463854,2.743755466424173,-3.2160137364625005,-2.235433864990611
1757045314538729501,2.717657314939593,-3.230644117363923,0.34755175707866215
1757045314564253079,2.703105632582729,-3.2048616526971703,-2.235332170598717
1757045314583355296,2.702904680013895,-3.2048634112043137,0.33009840212000086
1757045314607980589,2.6917711952551815,-3.1973775726129072,-2.218184017728902
1757045314628594043,2.6733294619947396,-3.2009865675819675,0.2951918198674406
1757045314653948722,2.6732556754096013,-3.200945592094701,-2.270543881469969
1757045314677190918,2.6732556754096013,-3.200945592094701,0.2950901189616957
1757045314705531692,2.6695982212623814,-3.1824146020526443,-2.235739017373632
1757045314725313548,2.658362328370113,-3.174932413746572,0.2773316669757335
1757045314749165347,2.6693299243588955,-3.1823681673937863,-2.236044167921616
1757045314772150291,2.6397742156522375,-3.1784504000329634,0.25977666243027286
1757045314793516028,2.6102185069455794,-3.1745326326721406,-2.2185908754016737
1757045314819452813,2.61769675563124,-3.163493902661642,0.25977666243027286
1757045314844874982,2.6102185069455794,-3.1745326326721406,-2.2185908754016737
1757045314870353090,2.5657063008676,-3.1926923253323154,0.24232336991033065
1757045314891521386,2.563896416109728,-3.1745958603534765,-2.182779603953719
1757045314912851251,2.582410166109587,-3.1710186284290294,0.2781346413582817
1757045314936252057,2.563896416109728,-3.1745958603534765,-2.182779603953719
1757045314955242936,2.5564281570720224,-3.185641351315629,0.2606813488383395
1757045314980905196,2.5564281570720224,-3.185641351315629,-2.165326311433777
1757045315003807865,2.548959898034316,-3.1966868422777814,0.2781346413582817
1757045315025306200,2.526868916110011,-3.1817503242023695,-2.130419726393889
1757045315047684531,2.519400657072305,-3.192795815164522,0.2606813488383395
1757045315073509000,2.519400657072305,-3.192795815164522,-2.1478730189138346
1757045315094441960,2.4934186480347407,-3.207418538051121,0.2781346413582817
1757045315118737009,2.493326682239127,-3.2073850465154474,-2.1654280375829558
1757045315139053480,2.478387917010479,-3.229474508890988,0.29548620772904854
1757045315158889484,2.470918534396155,-3.2405192400787586,-2.1654280375829558
1757045315183200963,2.470918534396155,-3.2405192400787586,0.33039279276893296
1757045315208540591,2.4524044205940614,-3.2440945886522043,-2.217787915142786
1757045315242411832,2.4559797691675076,-3.2626087024542993,0.36529937780882094
1757045315267990069,2.444935037979737,-3.255139319839975,-2.217787915142786
1757045315290845801,2.422526890136765,-3.288273513403286,0.36529937780882094
1757045315313982230,2.404012776334671,-3.2918488619767325,-2.235241207662728
1757045315339037514,2.385498662532577,-3.295424210550179,0.36529937780882094
1757045315356720449,2.3741352458773757,-3.3360277867278136,-2.217787915142786
1757045315383415231,2.376183489547177,-3.3363243876367568,0.401374170456414
1757045315415200530,2.350217090145231,-3.3509748115331814,-2.2166197075350773
1757045315435343122,2.350217090145231,-3.3509748115331814,0.3664675854165296
1757045315462548362,2.316794215761791,-3.376678684868566,-2.1817131224951893
1757045315488746037,2.3278476652007503,-3.3841351598500595,0.3664675854165296
1757045315514133662,2.3203911902192567,-3.395188609289019,-2.146806537455305
1757045315539099688,2.312934715237763,-3.406242058727978,0.3315610003766416
1757045315561781073,2.3054782402562695,-3.417295508166937,-2.146806537455305
1757045315587566902,2.305460755639381,-3.417321427294838,0.3315610003766416
1757045315621147672,2.2971858475560896,-3.4280264447884865,-2.130065170679295
1757045315656115787,2.278294135307553,-3.4314958116083325,0.31309071875433503
1757045315678079297,2.270826422946366,-3.4425416721786934,-2.095463648997839
1757045315705719260,2.2633587105851793,-3.453587532749054,0.33054401127427724
1757045315725833957,2.2669368587943532,-3.472101105680601,-2.095463648997839
1757045315752144529,2.2665802173293934,-3.4719312607457296,0.3476921664651158
1757045315772827170,2.255519115499673,-3.4644860765538286,-2.1132220788468885
1757045315798863294,2.2444755341213147,-3.4570149940359567,0.3825987515050002
1757045315820546635,2.2444755341213147,-3.4570149940359567,-2.0957687863269463
1757045315841085051,2.2295333690855714,-3.479102156792673,0.3825987515050002
1757045315864305332,2.2110187051893413,-3.48267465565316,-2.078315493807004
1757045315888536860,2.2226446939482862,-3.4892164634871463,0.4000804650577301
1757045315916850406,2.196984081463815,-3.4557603638427694,-2.0957403652941586
1757045315938865503,2.181922983870954,-3.477782661501639,0.3999787557198644
1757045315963309424,2.1635104686481554,-3.481446873876765,-2.0782870680988417
1757045315984903534,2.1635104686481554,-3.481446873876765,0.4349870547729928
1757045316007038257,2.156039700054923,-3.4924906676214724,-2.0782870680988417
1757045316029499735,2.144995906310215,-3.4850198990282406,0.4175337622530506
1757045316056301688,2.144995906310215,-3.4850198990282406,-2.0782870680988417
1757045316084038854,2.10439375648286,-3.473651386993252,0.4698936398128808
1757045316106337141,2.10439375648286,-3.473651386993252,-2.060833775578896
1757045316128427956,2.0673646318069796,-3.4807974372962036,0.4698936398128808
1757045316152991346,2.0672447568837655,-3.4807204740219486,-2.06093550007024
1757045316178936239,2.045158689428897,-3.4657766900641924,0.46979191532153664
1757045316205502017,2.041587547680341,-3.4472617643578807,-2.078388792590186
1757045316225007237,2.0230726219740287,-3.4508329061064367,0.48724520784147884
1757045316248535078,2.0230726219740287,-3.4508329061064367,-2.06093550007024
1757045316269320049,1.9860427705614043,-3.4579751896035487,0.48724520784147884
1757045316317238749,1.9999170914097397,-3.5318353124845787,0.5043933534245895
1757045316340516597,1.9846638822818623,-3.505469214637878,-2.0617491956402496
1757045316365390231,1.9650066229581942,-3.508559872883284,0.48561782761904837
1757045316389110648,1.965735246714786,-3.5091187719520183,-2.0444476282001958
1757045316414021688,1.9454073426692922,-3.512093072673038,0.4676060839190157
1757045316464569577,1.927787663282108,-3.437152862755074,0.46526680515108154
1757045316488712150,1.9185634806079095,-3.447771367074704,-2.014219481158264
1757045316515019705,1.9231165570467053,-3.436197532004957,0.4622155340483971
1757045316537872275,1.8940284520432198,-3.4494363510722614,-2.0531941709525547
1757045316567449524,1.88560269709862,-3.4288113070453514,0.4215117244511255
1757045316591910209,1.8721998891817968,-3.437354473889009,-2.061026053920429
1757045316620891479,1.8684122757030142,-3.4359984397927694,0.3972437269458453
1757045316647864455,1.8652793356305097,-3.4523202403814066,-2.0854973049525434
1757045316674879861,1.8507484714917746,-3.460660507215395,0.42309818206245353
1757045316703582579,1.843456944077354,-3.4580448490020004,-2.0951599977314217
1757045316728821738,1.8384726983593787,-3.4563742940539925,0.39730424134553743
1757045316754524769,1.838536638237004,-3.4430389783789725,-2.1212591432170207
1757045316784174657,1.8360153876583318,-3.478097588214446,0.42173413990487774
1757045316809240453,1.8304506059145653,-3.476579595811568,-2.1125525733343586
1757045316830618886,1.8140039257543676,-3.466569760553351,0.3794030570298048
1757045316853777198,1.8065525009423433,-3.4812702241804168,-2.1232324740063575
1757045316880300342,1.803893176156436,-3.5152243872920748,0.3673095230366066
1757045316906282030,1.7826705822448508,-3.502838598600194,-2.1356311749051997
1757045316938083852,1.7557410452545579,-3.520346727483583,0.35367965052957473
1757045316966385803,1.7463333749761147,-3.5182635851834467,-2.165082804136805
1757045316994385722,1.7278529889754783,-3.5259191256485103,0.35964309672511163
1757045317017103419,1.7138250903874714,-3.552373036711863,-2.158207460736861
1757045317042184120,1.7020997682048526,-3.547997959195709,0.36519876187365696
1757045317064128931,1.659577638678139,-3.5856319829120107,-2.170512752890186
1757045317086607147,1.6512412347934724,-3.5823470003080278,0.3551283528303273
1757045317112852075,1.6485814254644309,-3.586118868709552,-2.1833294010252295
1757045317165708561,1.533912050040385,-3.584464492070315,-2.212785338482764
1757045317192461931,1.504808832384709,-3.6188924868244103,0.3634866967028003
1757045317217594639,1.4973065992933496,-3.6345781321560118,-2.224279580979278
1757045317239985040,1.4888687363850714,-3.6314143041367397,0.3366756845689167
1757045317264874317,1.4769061788853284,-3.6272135459298043,-2.2354675221623523
1757045317286714832,1.4685260205878148,-3.623932851420783,0.29058139714804554
1757045317312727082,1.465660362033084,-3.6468609722789616,-2.247368047814124
1757045317334604252,1.457269417034948,-3.643970974917349,0.27888383688551954
1757045317361386242,1.4486161212191848,-3.6408014111578617,-2.256522366509209
1757045317386851007,1.464691740091362,-3.6479222038532146,0.21633303882730104
1757045317410996797,1.4461067766969005,-3.653984774085837,-2.2670182085232433
1757045317431530950,1.4427312470170457,-3.6593853848374374,0.1872847878145265
1757045317457828353,1.4435164171593622,-3.6662889103300813,-2.2605497599985718
1757045317479781404,1.4536120427327708,-3.66385025963293,0.19588929390008047
1757045317502906357,1.4402160405431896,-3.679378006549138,-2.288886220672879
1757045317527075905,1.4504236279163947,-3.677973202824497,0.16795935811859053
1757045317551703256,1.4471455025208144,-3.666375388134779,-2.316409329295677
1757045317579766270,1.447490164187544,-3.69418637993959,0.17595310672908937
1757045317605955650,1.4534208552912933,-3.7129393544847282,-2.3073982641371025
1757045317636915225,1.4416732117309254,-3.712900906320623,0.1839470725711152
1757045317667734406,1.430835830142759,-3.7139644597641643,-2.298076485783266
1757045317696201598,1.4398545867329167,-3.717185424335526,0.21245141293543668
1757045317721992996,1.4591333730521492,-3.7320722553715227,-2.3198017645234152
1757045317748220560,1.4715227159624336,-3.7548848940201403,0.2101120769670537
1757045317771504130,1.4998092428096659,-3.7600559520283077,-2.28794629424344
1757045317796586685,1.493124741235306,-3.7615504268057998,0.1710353755565137
1757045317823994571,1.4839820887324222,-3.7647495425629094,-2.2920149607489826
1757045317854174453,1.4743323757452966,-3.7876165754578563,0.14992019636602905
1757045317876960367,1.5175979901564727,-3.7831090379414003,-2.311372840715535
1757045317899966349,1.5029749237770855,-3.795843181735006,0.1668929752946795
1757045317922946611,1.5150524247401134,-3.803185774723023,-2.2939195608912506
1757045317953019744,1.507330311874492,-3.8086406047729846,0.2012909580852309
1757045317973852968,1.5199243988199465,-3.8125344979306655,-2.27829660658141
1757045318002431827,1.5028463256345346,-3.8079883665063763,0.18180394443260184
1757045318036903091,1.4972764842244326,-3.7960343726749635,-2.24379684781173
1757045318065519937,1.5011264263083042,-3.814530351203098,0.1840416912105134
1757045318089106876,1.5172076259436535,-3.8217227255642547,-2.275245080375811
1757045318115642704,1.522901439824334,-3.8216205950444286,0.1704536571052202
1757045318136785143,1.509409307975739,-3.835717276772182,-2.2895451623548198
1757045318163022063,1.5237026352665848,-3.825396125484311,0.18994117644464836
1757045318188223736,1.530138813757193,-3.8216264544088903,-2.270057830906282
1757045318214139427,1.5248690775410951,-3.8292572151646453,0.17472538207834987
1757045318236165125,1.5305831154174938,-3.8445066117040905,-2.267616722511569
1757045318257763580,1.5099565492843081,-3.830548207903094,0.19482321112721834
1757045318287170128,1.506055394671008,-3.839445486833905,-2.298557249498831
1757045318306786167,1.513705460017584,-3.8367031449312448,0.1991962147089481
1757045318328955064,1.5216928274941817,-3.8342589925261312,-2.3118404828849854
1757045318357033793,1.5190634123783047,-3.844194456231101,0.18743850492656122
1757045318379985644,1.5251749947555393,-3.837463200676051,-2.273042230686123
1757045318405198755,1.5219026053041889,-3.8466556902042726,0.24307967120294194
1757045318427279861,1.5303773176680648,-3.8249004780482077,-2.3030669469536242
1757045318454587190,1.5178775584180086,-3.8431550101440637,0.265618447688599
1757045318479264935,1.5157609538154542,-3.848880621686667,-2.2808330246704607
1757045318506386784,1.5120970120744057,-3.8375048249115444,0.28642816597817955
1757045318524885847,1.5004163946553826,-3.8332613538117295,-2.260328520710228
1757045318548812977,1.4984905713792216,-3.839466958601326,0.3073398498120099
1757045318575495161,1.4960328890044772,-3.849273804314452,-2.2722891602018365
1757045318601840837,1.491964486561619,-3.8384141812090804,0.29507391171977915
1757045318627857570,1.5174344954550252,-3.8537273270652452,-2.2517845755101327
1757045318656043949,1.5237496899906748,-3.8337954151020845,0.33353930529893105
1757045318683125829,1.5008708277454659,-3.8410715434222333,-2.247818876787239
1757045318711535976,1.4984660312601827,-3.84643196882865,0.3366919912029225
1757045318735925666,1.5051507905068173,-3.8461274490021635,-2.2259938714969927
1757045318762894011,1.5120625656097286,-3.846380978785919,0.37790324343366777
1757045318787517312,1.5007437350639685,-3.843308701195459,-2.22050125622852
1757045318809662709,1.50818070411664,-3.8401765287280245,0.3646204795961481
1757045318834590933,1.4945386447976519,-3.838991746658507,-2.199081128396376
1757045318861136616,1.4917803563836645,-3.8445204074840076,0.3853282323326006
1757045318883796828,1.5113265494907302,-3.8368236556698374,-2.174286323167575
1757045318907795434,1.5090053726917294,-3.8427632611124714,0.4105301588862105
1757045318934246095,1.496114332208437,-3.842567601567371,-2.187264721194545
1757045318962323564,1.4926738716108447,-3.851814477678129,0.3985687943606173
1757045318983770424,1.5090248012189416,-3.8389384107498272,-2.1651336293283308
1757045319010711570,1.5065786080595254,-3.8450190157328477,0.3847763702263265
1757045319035652402,1.5121454200374111,-3.844434385970346,-2.1957681528292596
1757045319062173758,1.5082955724834606,-3.8532335575365524,0.37220511807588963
1757045319086786242,1.5148823338963555,-3.849429820237652,-2.1569973722513787
1757045319114458657,1.5206632487629934,-3.8488910456140952,0.3590230816844979
1757045319143504401,1.5077192127145687,-3.8487202997392735,-2.1864114780264146
1757045319171658209,1.5327793338055624,-3.829110188642363,0.3653295014017104
1757045319204455861,1.5225959204663144,-3.8491387411717035,-2.178273921470648
1757045319226075576,1.5220491665175893,-3.8560459622310717,0.37305992037687474
1757045319253151984,1.5196307687016959,-3.846681266730801,-2.1712579393007516
1757045319277577285,1.5374412204654262,-3.8519835040190067,0.39691908406300414
1757045319303003750,1.5358942543837628,-3.8430611540359054,-2.2163958282523666
1757045319326486935,1.5357454445276915,-3.849654933934854,0.42230624996244615
1757045319353800539,1.5364921426586864,-3.860119900720462,-2.1899917236138826
1757045319377829123,1.5434400197435774,-3.8562731896719584,0.4328452913015184
1757045319415993337,1.5442045074532829,-3.850975892357981,-2.159659523203274
1757045319442419002,1.5386367235482659,-3.872129033533305,0.41329887218844163
1757045319467281806,1.5482925941863663,-3.850818542049374,-2.1469441349469243
1757045319488991943,1.5515369550576228,-3.858912515601186,0.44214488649890527
1757045319510515190,1.5466059132287513,-3.877229340143141,-2.134842057836167
1757045319536440944,1.5695010565269305,-3.8688195668799414,0.4580071284138434
1757045319558069820,1.5741197043795956,-3.8772765562661657,-2.1006094598073233
1757045319585565212,1.5712720039643149,-3.882055208912814,0.47611170511745016
1757045319610331892,1.573915808227132,-3.8718599153943023,-2.0647453732424665
1757045319638116287,1.5786036397873946,-3.8653858028223302,0.5114679529734332
1757045319665484643,1.596116480907798,-3.884490685169418,-2.0094950178372066
1757045319693381010,1.5701634675780887,-3.871476914701206,0.5478381032239703
1757045319720940870,1.5931157409852013,-3.875195334058462,-1.9942399275552205
1757045319746877028,1.5775734021447905,-3.869814775703984,0.5627898220872503
1757045319773215643,1.5907899842160775,-3.8678911937515608,-1.9948090954568798
1757045319795890787,1.5830986630486505,-3.865806390604223,0.5756055009762271
1757045319823580171,1.5877177454342708,-3.8733184932958733,-1.983416723406787
1757045319843958178,1.5797498972064314,-3.8708093528678464,0.6214973754211393
1757045319868981338,1.5790136028764181,-3.8570188663344105,-1.939865098696579
1757045319905374471,1.5896066742919008,-3.8612419418174326,0.6523870889391326
1757045319929699321,1.5992350735173726,-3.8535904698639825,-1.9447971322033162
1757045319953573347,1.601989032248077,-3.857813926669816,0.6596082216576811
1757045319979538126,1.592317817208244,-3.853133920189704,-1.9561482945627091
1757045320001442295,1.5896281151731069,-3.8370399709049345,0.68143480439916
1757045320024043656,1.6032623164384487,-3.8471422202461087,-1.9858679727569246
1757045320050741515,1.6046001531446081,-3.8488355190453767,0.703668003550753
1757045320077407313,1.5953044726214398,-3.844189934494427,-1.9641442341223616
1757045320103446669,1.597393537098319,-3.8462621405997734,0.7086501092256938
1757045320129748325,1.591766713192141,-3.8589562018910724,-1.9601783510548394
1757045320158128777,1.600544691660376,-3.849347466900274,0.7123109494557518
1757045320184631210,1.6083623856155633,-3.838710162118286,-1.939572851182323
1757045320211921415,1.5979697363688288,-3.8326377550651345,0.7144464212353547
1757045320238302232,1.6101420781359597,-3.8400996893670962,-1.9725471282897473
1757045320257578667,1.599348343784258,-3.833779126960099,0.6985186634698408
1757045320286881742,1.6119906164897682,-3.8416053813748756,-1.9530595494729432
1757045320326440679,1.5953658330889384,-3.847602482240729,0.7016716647609442
1757045320354983230,1.6042463722338334,-3.8380054262183636,-1.9488892203635615
1757045320376047421,1.6047341378664053,-3.8470481824737472,0.6723237065714471
1757045320403833059,1.6079738982681575,-3.850017758196006,-1.9594615201241012
1757045320430629845,1.6104226965483708,-3.852216924237949,0.6612788652843093
1757045320459121000,1.614985196589282,-3.8562502823345852,-1.9690825466273125
1757045320491981260,1.628867223709871,-3.851028700475326,0.6570489750477932
1757045320519833786,1.6327034696997746,-3.854320913439685,-1.9392196543161724
1757045320544704962,1.6208700688217423,-3.864860911035444,0.6856914724202312
1757045320572211551,1.6402078093390426,-3.847053054729543,-1.92497838762932
1757045320597473910,1.6444915730684388,-3.850664691530704,0.6977955481436666
1757045320620345008,1.6486942401367533,-3.8541944323932786,-1.9329723308890365
1757045320644959427,1.6432847581661405,-3.853388935219831,0.7270483934059548
1757045320673741645,1.6378265726902717,-3.8527066171819127,-1.9187316234424188
1757045320705539977,1.6436966339287091,-3.8576441030066975,0.7232250548326249
1757045320733664538,1.6495273345181878,-3.8624258044319575,-1.8709072970904579
1757045320755380581,1.6530549588251184,-3.865300430578273,0.7509519468009955
1757045320781127632,1.638102603696894,-3.844321038345884,-1.8983885458159477
1757045320807872862,1.6429217122980346,-3.8484026879462885,0.759903204215302
1757045320837646005,1.6531647420344966,-3.840148426858561,-1.905364827504446
1757045320859344258,1.655964357817091,-3.8424969685116177,0.7681417648053603
1757045320886584555,1.6420702527111346,-3.8363890413249733,-1.8673358690857178
1757045320908289244,1.644776142656767,-3.8386769800441356,0.7711628341098056
1757045320937246272,1.64896472466722,-3.842112191829723,-1.8770587360307118
1757045320962811252,1.641254620130991,-3.840346102508883,0.7808260093486474
1757045320995491436,1.6580697293126834,-3.849636230781617,-1.8319804327834461
1757045321017308422,1.6492599187616692,-3.84701245721907,0.7897768647996699
1757045321044411918,1.6546459764909214,-3.851475450604174,-1.8222155625979468
1757045321069286065,1.6517499975266983,-3.837359925877201,0.8003551151080543
1757045321096986932,1.6706584054389688,-3.8479755855914566,-1.810213734295072
1757045321119963663,1.6631849790404023,-3.8467602894176243,0.7608108609813478
1757045321145439731,1.6762179951783092,-3.840857958282742,-1.8133260574056003
1757045321170218573,1.6818572576336086,-3.8453327880972923,0.7760673552606363
1757045321197588656,1.6912741297633263,-3.8527213923391526,-1.7790907956663808
1757045321223175381,1.6887424468344014,-3.8556923557067138,0.780074471794336
1757045321250275591,1.7005773675460802,-3.848736430047626,-1.7077142425553085
1757045321274558868,1.6867752927896495,-3.848636282984513,0.7658121184308193
1757045321304086140,1.715779693341808,-3.849494760849317,-1.664223498425514
1757045321331776914,1.7116205193596412,-3.851767037512958,0.788691886071728
1757045321360431231,1.7250985969050736,-3.8617309253683856,-1.6573725435158693
1757045321390930698,1.7174122128868907,-3.8658006082914667,0.7964094293418
1757045321418356506,1.7231928393054465,-3.8601998776081983,-1.613222792605793
1757045321442347844,1.7287881458675183,-3.8548234639886587,0.8642690128966706
1757045321466346062,1.703210606319276,-3.8395237910806017,-1.603012387734715
1757045321492062489,1.7312311075080378,-3.8538055585835265,0.9095908615923918
1757045321516261856,1.7412892440061694,-3.8609972493429243,-1.5925970919806183
1757045321541143189,1.7460070626844764,-3.8558406559141534,0.9372447467318565
1757045321563972155,1.7449923120610715,-3.846985640606532,-1.5479987345838886
1757045321590418196,1.754423026453442,-3.85363813539897,0.9408449179984899
1757045321610482559,1.7573493068775925,-3.847906431034983,-1.504710341533407
1757045321628765428,1.7506400667983337,-3.835706866305495,0.9610855450503664
1757045321653328958,1.76341305955915,-3.844664619601998,-1.5029402229012128
1757045321675350395,1.7584195840891108,-3.848502048288042,1.0194884561390012
1757045321706792619,1.7586142435760461,-3.8417980624656516,-1.4457572573696176
1757045321726285901,1.756221325592997,-3.8192906712395596,1.0414580772653146
1757045321751423152,1.7821631377108111,-3.8153909966935626,-1.4238908575606786
1757045321773810242,1.7619253036913247,-3.831476319704497,1.063122521934698
1757045321798838770,1.7837494121530306,-3.824505385989239,-1.4068018536164715
1757045321820562824,1.7691257068364399,-3.816902218917056,1.0841787336607922
1757045321847976931,1.7767330153373437,-3.8222622158932635,-1.3854409300189126
1757045321878905231,1.7815698377335796,-3.8289533478981834,1.1017456755278836
1757045321904476691,1.8076642956067754,-3.824406401695717,-1.3626877456931012
1757045321942264395,1.81149112518233,-3.8352545714476696,1.1352082895890199
1757045321970339366,1.820598286677143,-3.8276914213888475,-1.3504411903643323
1757045321994263910,1.834834349536786,-3.8366730523461183,1.1440880472566128
1757045322014952436,1.8443208363546393,-3.842527821987243,-1.3410533914206368
1757045322038550963,1.8671419938256437,-3.8347211148802107,1.1134939640628971
1757045322059792627,1.8643959918904465,-3.854401095180952,-1.3186765873342132
1757045322088907670,1.8788300026869524,-3.8496761893292364,1.1241131496240726
1757045322119591139,1.9070865458376423,-3.856937140486818,-1.3027701315556435
1757045322144991546,1.9218882078932835,-3.864616030567268,1.1744178117362338
1757045322166192315,1.9435597961534794,-3.8548751688377245,-1.293269541612954
1757045322193053421,1.9572094761269896,-3.861406891833211,1.2001518387500738
1757045322221358498,1.97215985672569,-3.880725388584241,-1.2288676412906518
1757045322247746093,1.9789915483045268,-3.871361086625616,1.2414047588559889
1757045322277643867,1.975765127465119,-3.865406867690184,-1.2064911470846162
1757045322313869242,2.0382506633855324,-3.8363829248219865,1.270186395208988
1757045322344935496,2.0213170492527612,-3.8447994301385,-1.1278910042139465
1757045322366928720,2.037841720555627,-3.8315903831364557,1.3047281873182612
1757045322395251050,2.035805787608631,-3.818728087033834,-1.1381144737655582
1757045322421390852,2.0412247057154955,-3.80881444174474,1.3320556137729582
1757045322451772955,2.033305106071482,-3.8134886462190143,-1.0879507427713087
1757045322477963833,2.025335058302486,-3.8063125112193736,1.3472110020357526
1757045322505746615,2.0436447188527427,-3.7936451204474952,-1.0516810322443284
1757045322532147194,2.0512716408266556,-3.7966344544764175,1.3833782746778809
1757045322557287600,2.039914457253884,-3.7886499284084763,-1.037035279692887
1757045322583663362,2.0535295443439794,-3.7624386128895253,1.3975163678935019
1757045322610019327,2.0485526395924962,-3.7805194550689194,-1.0227953719193152
1757045322634566342,2.0558230130046002,-3.783439180218643,1.411956248771851
1757045322661047156,2.0631289063556233,-3.7863262398548128,-0.952945008201322
1757045322681231413,2.0490888063172408,-3.777975708964842,1.406097660823523
1757045322709017874,2.056491504838003,-3.7808990033382903,-0.9585991547655475
1757045322739850195,2.0606142544245722,-3.7711763292409777,1.4071566249698009
1757045322772346956,2.071644506656119,-3.775411978628728,-0.9705185200258377
1757045322799316383,2.060654583971629,-3.7689317225626278,1.445049743220789
1757045322824895249,2.06872747630663,-3.772055749837474,-0.953644348761717
1757045322852422097,2.059898765338175,-3.766813802212343,1.4647763691184927
1757045322874886312,2.054284131412636,-3.7539483572479497,-0.9446433156538845
1757045322902485404,2.074642610522905,-3.7526892448279363,1.4735716075545007
1757045322922307783,2.050173241441609,-3.751133254357091,-0.9460353721026067
1757045322952170762,2.06123444364957,-3.7247293976314833,1.5071907033041256
1757045322985239447,2.0732376755334183,-3.740155869267814,-0.8920081450050752
1757045323013492903,2.075772242486369,-3.730630738831701,1.4735442339769982
1757045323041885606,2.0707115310698185,-3.7384520510225294,-0.8209323175231908
1757045323066145528,2.070696808895444,-3.728104381607721,1.4718566900496093
1757045323088121122,2.0654040824325652,-3.7055181607351573,-0.8255697112277502
1757045323111286900,2.0782885784624594,-3.7209359987700523,1.488334877707576
1757045323137018896,2.0836271206429258,-3.7230417630368247,-0.8085827228967233
1757045323163872122,2.0743393541835276,-3.719581789894309,1.488580163700746
1757045323188929104,2.1043493442666596,-3.7107209626387254,-0.7728207480642624
1757045323213759967,2.095901037199031,-3.707803745265534,1.5083136219289983
1757045323241386289,2.096489520473086,-3.6982411480807644,-0.7870782915684025
1757045323269872584,2.0947986963359035,-3.708097142647739,1.5652931313502094
1757045323298789392,2.1113569390158387,-3.694187987185368,-0.7416555383490753
1757045323325586587,2.098318605686265,-3.681130489398091,1.5948891522525592
1757045323350919429,2.103773238357089,-3.6740657095928726,-0.6751191083969452
1757045323378717987,2.11436638393358,-3.6582514667874326,1.6017384992056307
1757045323399091013,2.0998657252383133,-3.6749159750775684,-0.6551869205766572
1757045323425499087,2.0950915451312735,-3.6756571222870025,1.5800963380648945
1757045323454871485,2.135813172121962,-3.648308655997943,-0.6342929156592554
1757045323482147495,2.1207095886403926,-3.6570038622944523,1.620474767582298
1757045323539844768,2.1335452534435446,-3.6256615210846155,1.6390228733854997
1757045323562559358,2.129898827033867,-3.6284160572150066,-0.46800136508996104
1757045323618006814,2.138519791007972,-3.616780467835994,-0.41311556409871386
1757045323648861814,2.135768138096883,-3.601692525504509,2.575809890784857
1757045323727939807,2.2797152363932134,-3.437581845747239,-0.109129816501909
1757045323778108840,2.1810373500566143,-3.347411452167226,-0.3045949855721375
1757045323806332656,2.150672913590294,-3.3521054323098185,2.8555076178342205
1757045323855117380,2.1193995282534948,-3.266718938873077,2.518179773403343
1757045323900408354,2.197138734632638,-3.369882223203519,2.8280143106320175
1757045323923194484,2.180974319149664,-3.354410533342473,-0.4257845687041133
1757045323984869453,2.1813295054540176,-3.333556601663076,-0.4810141006884159
1757045324012706972,2.1228866349422284,-3.2869276712873265,2.672884709325402
1757045324040245464,2.1279158025044005,-3.3075804440342984,-0.6182607046899307
1757045324094237625,2.146293925710503,-3.3208137553751778,-0.5623006019912182
1757045324121800921,2.1760115393147075,-3.3090601665524657,2.7453215655802836
1757045324143039797,2.2183421744758656,-3.3225047354689554,-0.390677972611293
1757045324170241936,2.1875096223192525,-3.3003501062735108,2.6687340954287464
1757045324201244474,2.1789966831492302,-3.294128008196126,-0.4483875867511351
1757045324231433374,2.152158992977828,-3.291751387543597,2.613870172420974
1757045324253639267,2.1422463209531384,-3.2850568862457163,-0.5767255720831344
1757045324277473189,2.1542928048222065,-3.2931936207000523,2.55036369990664
1757045324298957021,2.1661480170915386,-3.3011152796041934,-0.5366312827315838
1757045324321909803,2.1561332451697495,-3.2944219838307682,2.5383015700980707
1757045324348352457,2.141914416632338,-3.26904648551303,-0.7235313757766946
1757045324375597871,2.1755737398367123,-3.2913933587599615,2.5234942483937246
1757045324407952387,2.1581032440719214,-3.295838826114311,-0.6150472302599646
1757045324432895167,2.2034473966128387,-3.325425277867424,2.7554724155970156
1757045324459351605,2.159106763396266,-3.296494300553194,-0.4723697406827938
1757045324489128855,2.1927787277264352,-3.318395847209667,2.5998165337347032
1757045324515029839,2.170594859719334,-3.303960113667033,-0.5239159567862757
1757045324544033008,2.1599045889297774,-3.297012416897983,2.4970293551335843
1757045324573666858,2.1788498781467305,-3.2933709496234247,-0.5556695019426137
1757045324600439894,2.1719575009395244,-3.304776997623863,2.5868385170143924
1757045324621006735,2.1569474409707143,-3.2792623639074643,-0.5364872463302213
1757045324651143123,2.168210327808968,-3.2865036392901117,2.640622365391856
1757045324684284503,2.1609796721148578,-3.2977061089149275,-0.6043681614088889
1757045324708193102,2.201861476794477,-3.3080134194118314,2.6426562263365554
1757045324748286339,2.2019891276230434,-3.308046586087795,2.661126411397234
1757045324773466972,2.1611614237842325,-3.2978219359562244,-0.6197874284754832
1757045324795974039,2.179619658592925,-3.2937734359641953,2.5742668209551702
1757045324819558535,2.1724546090402352,-3.3050179825783,-0.48005937003490473
1757045324844354210,2.1386529726254677,-3.2834730632317504,2.4518903284003386
1757045324869710421,2.1795277187850495,-3.2937196582225945,-0.4629112500821648
1757045324897695208,2.16995071452336,-3.3046283439812583,2.499086864510492
1757045324929914720,2.1770798620342684,-3.293363640069334,-0.5030829100946086
1757045324958135534,2.135648998776234,-3.2824656779110866,2.637289362368417
1757045324982712217,2.1529895852538097,-3.277763377598741,-0.6986292417966595
1757045325010079610,2.167510001300615,-3.3031224939483503,2.5815724967747897
1757045325030816943,2.152187869310351,-3.277217126418795,-0.6303419261392946
1757045325056414868,2.1629729146764833,-3.2842519127829664,2.5978051332181664
1757045325078811849,2.1558032528157454,-3.295494459386482,-0.578490665185587
1757045325107484348,2.167065151979329,-3.3028453791748387,2.6680251296976856
1757045325132270000,2.156233926528138,-3.2957754093311338,-0.5774735206682742
1757045325164909082,2.1564755967353038,-3.295932793807804,2.547174465347986
1757045325194127210,2.156572280460053,-3.295995707257391,-0.48949499884104597
1757045325219261631,2.1567132608542576,-3.296087381180551,2.5128781662239703
1757045325245715846,2.1680890640669483,-3.303474799528671,-0.6981208011964171
1757045325268744822,2.1458410400048558,-3.2890319327741517,2.583403322784193
1757045325297071253,2.1906804971419738,-3.3181211641878354,-0.5754392105541832
1757045325319595619,2.1459149022312904,-3.2890814764456153,2.5660517294341894
1757045325345628436,2.1457982006310172,-3.2890008837717253,-0.6456592573230147
1757045325371398465,2.17816437498294,-3.3106211857157906,2.545647581604939
1757045325397051421,2.1668110880739055,-3.303216951876718,-0.5791020724711871
1757045325419686878,2.1667882476561218,-3.303203638224557,2.4925757130334922
1757045325445449878,2.15569997191943,-3.295951551557322,-0.5615470512872633
1757045325472417195,2.15569997191943,-3.295951551557322,2.5276857247426996
1757045325503777253,2.166931979653781,-3.3032911202955337,-0.5613436048155869
1757045325529820008,2.1743385852561747,-3.2921968566570063,2.5632026057359028
1757045325552340851,2.1784787783377215,-3.3107939242250715,-0.4902089039156081
1757045325577100490,2.145081603501643,-3.2890382874619766,2.5120625665826246
1757045325604590319,2.145314803896396,-3.2891997404184425,-0.5940132094592059
1757045325629915581,2.145314803896396,-3.2891997404184425,2.4428596890109233
1757045325651297378,2.14526719257885,-3.289167160250404,-0.7162879743387975
1757045325676653649,2.1340224964395715,-3.2818470434843405,2.4251012310655007
1757045325716857554,2.1525368992522234,-3.2779899899912293,-0.7162879925360741
1757045325748244239,2.1750044232659707,-3.292596531453527,2.5653378696259175
1757045325774727740,2.134307776218615,-3.282064820028073,-0.5583946883207389
1757045325795982329,2.164071058404397,-3.2854915650453114,2.6534179805409295
1757045325822591940,2.156814991699985,-3.2966775928133862,-0.5579878525519995
1757045325845953064,2.1791870524305565,-3.3111897240581314,2.6708712636375154
1757045325873973981,2.1550329901749183,-3.2966598607951143,-0.6295727004079268
1757045325902372431,2.1662061475811365,-3.303935733060701,2.5992864157815845
1757045325928539522,2.1550108594708033,-3.296645446902907,-0.49004807768823255
1757045325952163416,2.139877811115483,-3.270870045980781,2.581527962981845
1757045325979835467,2.1588080547762303,-3.3150357388501717,-0.629979578046342
1757045326004500226,2.139812605799379,-3.2708210698965945,2.546417951697645
1757045326040311175,2.1212296339026837,-3.274603475669673,-0.735207887059655
1757045326068539798,2.1282684442326265,-3.2632317147771737,2.4054693077485254
1757045326097267789,2.1648704542690043,-3.303125279838135,-0.5288197423909402
1757045326126327922,2.1822186704886164,-3.29866306445958,2.5748148892738882
1757045326153472609,2.1259464715384153,-3.261375192537087,-0.7429380246526378
1757045326184669662,2.1620836324537347,-3.3013849280499645,2.5713569801389937
1757045326210670746,2.1501937335155117,-3.293462934236139,-0.5718630163181615
1757045326236200097,2.1781944643375426,-3.296239460557275,2.636491503130614
1757045326255813967,2.1549455303903904,-3.2805915432388715,-0.5947069708035322
1757045326278387452,2.1681352785570898,-3.305702384384355,2.648655685635841
1757045326302649993,2.1769873077354394,-3.3119383928480643,-0.4275990855585974
1757045326326711035,2.1721357421115655,-3.292518242350855,2.6063241245550692
1757045326350891265,2.1523103791970937,-3.295060504284743,-0.4682017466445316
1757045326372512794,2.1460253463602204,-3.2750263868201164,2.5636893776180614
1757045326393699145,2.159009089300022,-3.300542028031948,-0.6155561677901069
1757045326420837763,2.157898161757655,-3.2998407783795547,2.5582986986454017
1757045326447055518,2.145203175303922,-3.2908751932582616,-0.48274422373649983
1757045326473974575,2.12932041824026,-3.2629857673520433,2.4098236872830228
1757045326524600204,2.1420779267602628,-3.30541914880664,2.5758135816690277
1757045326545755412,2.167288298944875,-3.2910382893461017,-0.534126865469954
1757045326568763346,2.1153853456209477,-3.269042877493692,2.46478811072139
1757045326593280318,2.1356609168264056,-3.284247126908297,-0.5925891492312623
1757045326620752583,2.1339344277028762,-3.283021964345983,2.6314907355755004
1757045326647502848,2.1427936302779846,-3.2899101002714217,-0.6197039122082728
1757045326675801586,2.1621645908994815,-3.3050793363929936,2.5871252465254706
1757045326730891549,2.1703914518758536,-3.3119498892603088,2.720751127437545
1757045326757496800,2.127526239683532,-3.2783688118879857,-0.842466786167094
1757045326779174329,2.156193982924967,-3.284084057523654,2.7512841776310495
1757045326808159545,2.13693465997958,-3.2858989473548084,-0.7410016296098121
1757045326832476661,2.1757788838667818,-3.2998767972132996,2.7652795048152576
1757045326857934809,2.166752844477084,-3.3098537222273383,-0.534816731511377
1757045326884443898,2.1664679463435697,-3.3080507977836002,2.556830680383513
1757045326914396493,2.1153171365668104,-3.284426704713277,-0.5343347516135388
1757045326940174158,2.143687456055048,-3.290099715035999,2.658092134553854
1757045326962173450,2.1219816080375957,-3.272740259562127,-0.5726995816959004
1757045326989155682,2.121456779532875,-3.2723385255576067,2.5327660901444595
1757045327016872356,2.1623337342708715,-3.3054235777832806,-0.40081101565166577
1757045327045734914,2.1306761516986894,-3.2798647977324524,2.547473138956313
1757045327066483496,2.171876262144176,-3.3133181258435296,-0.5421664430806636
1757045327090189992,2.1490798574180214,-3.277654023264027,2.7039425455940815
1757045327114929625,2.1509536863105767,-3.2963576344909757,-0.6820979169042687
1757045327136777898,2.190358534108377,-3.311207668928842,2.7210906928711154
1757045327183875747,2.150858369671399,-3.2963151250567955,2.703332276458802
1757045327209541830,2.119821124999027,-3.271082421753528,-0.5953400098104886
1757045327235714636,2.119842475160723,-3.2710980283725557,2.406728022956557
1757045327259538242,2.1716509726702116,-3.31318764962453,-0.5601283810244304
1757045327316033711,2.0993352773092044,-3.254441649277108,-0.7865126324474936
1757045327342733553,2.142720714453628,-3.3068199265336173,2.5471679541267065
1757045327364084569,2.1097083725660997,-3.2628607720247036,-0.6293312845029746
1757045327412581394,2.1523294171044225,-3.296082569483658,-0.6441019428555173
1757045327443573227,2.1503734824487517,-3.2773652057462885,2.410325968379688
1757045327472396351,2.133604180982425,-3.298104522751023,-0.6615552418282924
1757045327502061283,2.1938575198445376,-3.329596696554184,2.602210459401107
1757045327528238940,2.1271814229045667,-3.327195475517812,-0.5220306181354708
1757045327553837207,2.1730812979922742,-3.3128298110422074,2.584757140380802
1757045327580038170,2.1252062220588988,-3.308460825826618,-0.609195390768825
1757045327635583735,2.071343243925613,-3.2478637450213252,-0.8359864708278053
1757045327663219825,2.112872874375901,-3.281370388475578,2.480240776124141
1757045327690862253,2.067003043489826,-3.2957602995914734,-0.7660716325853159
1757045327713848404,2.0713432354105428,-3.247863733498721,2.4452324721401375
1757045327739346665,2.094101049290824,-3.283358233690768,-0.5916404263299953
1757045327762008390,2.0920968223855536,-3.264608871743065,2.4277791787336227
1757045327784114424,2.1068377342460445,-3.2251059205366808,-0.5392805496567341
1757045327807002706,2.110801297925681,-3.2625684259422902,2.4102241641776203
1757045327835024730,2.1107564176373255,-3.2625322037698576,-0.5569372786754805
1757045327865014549,2.112779289026562,-3.281298357847749,2.567303802879401
1757045327892086252,2.105614381855516,-3.224878453361214,-1.1668738402228271
1757045327936238296,2.0721542186163653,-3.2664099076386375,-0.8178079898239616
1757045327961660777,2.130393488639197,-3.279089885394771,2.568029046557399
1757045327985291670,2.0784410683994934,-3.2372200406928515,-0.5736653293739273
1757045328010516425,2.1095396466111103,-3.262285302094905,2.5678256012247083
1757045328054471987,2.067883974251521,-3.2286691917458596,2.183344570806753
1757045328081206025,2.107219442491854,-3.243270710105221,-0.6445973841065431
1757045328107971028,2.059097838303145,-3.23862816319398,2.3217507769773995
1757045328133939292,2.0794319707682267,-3.255047136891936,-0.6811309767404801
1757045328160268842,2.0855356752949374,-3.225626123705471,2.3374749185283363
1757045328192367984,2.063687662411192,-3.207658534295538,-0.8940282900650871
1757045328220888585,2.0441283387773366,-3.2087033360496364,2.2281785026645693
1757045328255562708,2.0715089933195423,-3.2135740246763844,-0.830825102444912
1757045328278705252,2.0517915218146943,-3.2143082283507933,2.238005245583384
1757045328303796057,2.0486401966264816,-3.193790522791092,-0.9087748609949493
1757045328328169474,2.0577093207914348,-3.201078291892825,2.2289528222519124
1757045328356049750,2.0744744574718097,-3.1973294398492786,-0.9018992911389034
1757045328383571769,2.042251833679046,-3.186944892372808,2.1625477666505297
1757045328405900157,2.07055320186747,-3.211334835382561,-0.8971680857012423
1757045328433624547,2.0674617514953946,-3.2081067570312656,2.2180211207897926
1757045328461514530,2.064073243310548,-3.2045039283420302,-0.9683424102974101
1757045328489997573,2.0714301492506246,-3.2109723611551493,2.201142793421816
1757045328513620147,2.0673855286508434,-3.20674277348515,-0.882433255974771
1757045328540394026,2.0740495283276075,-3.2129001055835316,2.302975373931549
1757045328564528332,2.0504476700090972,-3.1892380308877657,-0.9048106029310894
1757045328590707600,2.047334564009193,-3.18555505840196,2.1920088382725496
1757045328613579298,2.042403048390858,-3.1795736274582214,-0.9478925154672879
1757045328641985009,2.028269674012625,-3.1634162279056164,2.159774895550683
1757045328669165465,2.0338489699144615,-3.168732067528347,-0.9933125344958036
1757045328699684545,2.0286196949533295,-3.161787082028288,2.043446103246783
1757045328734944082,2.00461738660686,-3.1315782147491786,-1.0875513445595146
1757045328760809070,2.0097900844306507,-3.13671233809381,2.0764359990937287
1757045328789510646,1.9968608972439619,-3.118703365567543,-1.1529718106990536
1757045328838184447,1.9865630863945225,-3.1240971349184528,2.0621458560790096
1757045328862574390,1.982050427417208,-3.1160551520557886,-1.2032482728743155
1757045328887434783,1.9821002894478137,-3.092540773708154,1.9268158116201306
1757045328916536980,1.9820843160906592,-3.065961957809738,-1.2695180008716385
1757045328945923372,1.9601538704355383,-3.0532264420085498,1.7820181595610123
1757045328975007905,1.9562216949326787,-3.042772869420743,-1.347246402171713
1757045328999800877,1.9669698123301276,-3.0588794220494497,1.8675747035208587
1757045329024120259,1.9692589717263582,-3.0605824465999816,-1.2759903275303373
1757045329054281655,1.959835877393795,-3.0694795049055217,1.917818294365155
1757045329082551159,1.956300854979558,-3.061313938367997,-1.2220853381088688
1757045329106899574,1.9422824798093785,-3.032259181136325,1.8397267766275576
1757045329131589730,1.9637623235353519,-3.0751696207574613,-1.067282215714755
1757045329159905222,1.9008656858829305,-3.0661248875539595,2.04160131282557
1757045329184729977,1.9300523230847455,-2.9991572189422495,-1.3959215444600481
1757045329214608904,1.927874331800362,-2.99056962198142,1.6405028561431365
1757045329240293836,1.9040160203960261,-2.9650273199106425,-1.4086791039910125
1757045329293736651,1.8819461321811466,-3.011083338742897,-1.424871447334347
1757045329419511508,1.5888482481320785,-3.0999550822121,1.6299480230672074
1757045329450453358,1.576428147449945,-3.1038938829996794,-1.4222866595459287
1757045329476188406,1.5637835258204813,-3.1078154656319437,1.5647256135326586
1757045329501983814,1.5474408319359143,-3.098552022096881,-1.4520918959348386
1757045329527040857,1.5388455330335002,-3.119078818924105,1.5225551028924436
1757045329547479531,1.5364214886671164,-3.1104224104181797,-1.4892784928231144
1757045329572998016,1.5198500096360057,-3.099996833178424,1.4624206907189077
1757045329594443795,1.5203862522608298,-3.104006837224242,-1.5149127879994353
1757045329622118343,1.5039327022484335,-3.0933853535368807,1.4544446848127386
1757045329648493968,1.5017688886054796,-3.084427526761617,-1.557687940369238
1757045329676891405,1.4901882225478607,-3.099748566245015,1.4117689964025217
1757045329703363938,1.4848198742800662,-3.07308648794145,-1.6054552767361514
1757045329732731040,1.468747719694011,-3.0614222267043876,1.3462445274369088
1757045329761301081,1.4660499829341345,-3.0476163703496,-1.6362756043004083
1757045329784704532,1.4496019362086003,-3.0268236952411325,1.3206141436835601
1757045329803645707,1.4496031661220679,-3.0310273721171535,-1.656414203093977
1757045329826462975,1.434866155085099,-3.023211216992672,1.2831215049469904
1757045329853234714,1.4328421584325033,-3.0094823353003064,-1.6988912404368541
1757045329876931976,1.4306007698991379,-2.992532456885735,1.2817896327190539
1757045329903080626,1.4290712423298477,-2.979139242964269,-1.6824639052634538
1757045329922410207,1.414882365365235,-2.9712793860468287,1.2403315724990946
1757045329944898838,1.42742165027396,-2.9622317641159226,-1.6660693505358388
1757045329969610761,1.4134193878126922,-2.954623657558485,1.257233963849469
1757045329997130370,1.3995485740391396,-2.9565801687060933,-1.6875327721943378
1757045330025084971,1.4120761708996725,-2.9455249504330143,1.2504775217323
1757045330052875831,1.3980648576129182,-2.934731345715803,-1.7107247204378169
1757045330080242665,1.3976968781416523,-2.927721483534048,1.2314565165511908
1757045330109999404,1.3706185786883007,-2.917732739381816,-1.6933133762532755
1757045330135665724,1.3559026486943604,-2.948155251596372,1.194473983888205
1757045330161697616,1.3282303195972074,-2.9518590345290883,-1.7115203140101833
1757045330183212476,1.3561760084011025,-2.907937622883349,1.1807421455780762
1757045330211700939,1.3287373210562903,-2.91311549483194,-1.706069033309781
1757045330238479235,1.3153040321468268,-2.9084291154047333,1.1523037415905293
1757045330265472729,1.3417907862742473,-2.904262522196061,-1.7156309268013423
1757045330292307800,1.3150710370581498,-2.897440614709505,1.1415216458647741
1757045330313397693,1.3017190993256849,-2.893253005579173,-1.706619830358747
1757045330336661085,1.3007689540476761,-2.903381324125629,1.1352155131008246
1757045330363682685,1.300674100429029,-2.898197323327207,-1.7321086119139757
1757045330389760000,1.289715097503899,-2.8745474789535916,1.1514155710382354
1757045330416179570,1.2764635411298204,-2.868641283671236,-1.7330567546304003
1757045330444500792,1.2786178807842894,-2.838009491655575,1.125417949788428
1757045330469552453,1.2510625885347841,-2.846656540212137,-1.7218082161004489
1757045330491764581,1.2511599467835237,-2.8437042949020874,1.0854257237875693
1757045330518374977,1.2391170418110309,-2.826728040239552,-1.726893689116725
1757045330541659106,1.22603658863356,-2.8216574135949894,1.062072949268618
1757045330565361986,1.1996341661995533,-2.816432288577998,-1.7155434149739044
1757045330585780221,1.2010977955497102,-2.799835922790722,1.0740338571335144
1757045330611798098,1.2014700809086574,-2.7948075767662055,-1.6880616234648897
1757045330638682482,1.1884359627505916,-2.790486128569052,1.0843674303363997
1757045330665769377,1.17551437822203,-2.784918931033964,-1.6943677272815378
1757045330689019260,1.1624862922255512,-2.7807862587465784,1.0783662396251046
1757045330709965913,1.137732225584587,-2.7614864247711144,-1.699351895634237
1757045330733511347,1.1383057835009012,-2.755901299953016,1.0710431520333614
1757045330759056510,1.1122269305740815,-2.7489902382052662,-1.7071833558155092
1757045330784340342,1.099652438225222,-2.741421883607995,1.0979144735804667
1757045330807682343,1.0885743322305919,-2.722527754403076,-1.7327736588525013
1757045330837372485,1.0611575724035245,-2.726314441860798,1.0898799070604426
1757045330865657288,1.061911299724324,-2.7202575063925565,-1.7423339178063202
1757045330889359382,1.0491657664202796,-2.7154476489446395,1.06541141094673
1757045330911131310,1.0235031540581687,-2.706078535059444,-1.731489253382282
1757045330935968503,1.010910678090206,-2.6997245098476053,1.022774210042293
1757045330966903708,0.9551793714263503,-2.71068844579635,-1.7577919390476033
1757045331003948013,0.9412927703157645,-2.7107797455476708,1.00934842772363
1757045331028656740,0.9615511757265254,-2.6687056332515597,-1.7691835466210222
1757045331101498493,0.7793329967242211,-2.7027411060652398,1.0125617651796333
1757045331128827902,0.7774841066767622,-2.7115877316575823,-1.7478046712284154
1757045331154854663,0.7520728841428659,-2.6994675701309223,0.9876833693244862
1757045331179321298,0.7551830141738303,-2.68075498729792,-1.7734966786189545
1757045331200914104,0.7690238210537195,-2.6774875054387905,0.9804623351749022
1757045331228096742,0.7308366201706569,-2.661800256573321,-1.7473368483860945
1757045331252267955,0.7448410530765299,-2.6577352052482985,0.988659988310836
1757045331279297217,0.721943649481086,-2.635307539280493,-1.7191403506174687
1757045331301179540,0.7227525365562564,-2.6300686429069193,0.9828651263401085
1757045331327780949,0.7103788750173101,-2.623048295680709,-1.707586457536916
1757045331352055107,0.7171109496776731,-2.5898681846645615,0.9758469975184525
1757045331378100257,0.707260891238273,-2.5722367072293477,-1.6956646289918815
1757045331397615514,0.7053576544411089,-2.5803370688162675,0.9541845117955177
1757045331421031731,0.6835702250281639,-2.554389191057723,-1.6856363835155648
1757045331453376968,0.6849816534036488,-2.5473501791358863,0.9455387063210381
1757045331479088594,0.675839022975621,-2.5271621322648814,-1.6575448061257383
1757045331507190253,0.6802282368846506,-2.5079351927574347,0.9392324964773309
1757045331533384112,0.6559864190709614,-2.494317480905261,-1.6657833566231268
1757045331556748858,0.6733985408567766,-2.4788652429075895,0.9139478608851164
1757045331581074050,0.6649940029077615,-2.4571827467978293,-1.7074022021682183
1757045331634345839,0.7790796101419126,-2.387949453395245,-1.768712184687729
1757045331662123734,0.7811465355596536,-2.3814925937573377,0.897471034119107
1757045331686023902,0.7729118893103673,-2.3612815814136505,-1.8103321023487027
1757045331717921300,0.7748790850106724,-2.3554172010609618,0.8911740150194589
1757045331743874008,0.7808012539599405,-2.335417784926833,-1.7837544064855706
1757045331769002885,0.7568755169733081,-2.323295442208334,0.9007975793501153
1757045331791688579,0.7598485571346405,-2.3149725927735405,-1.7748452431196355
1757045331839203916,0.6295674567363467,-2.33636152621646,-1.8158546323271487
1757045331866302994,0.6572860850817652,-2.3372537131327253,0.8506342198052259
1757045331890398145,0.6325004543198565,-2.328629666473861,-1.8204935960394337
1757045331915682967,0.617627141414391,-2.332447922687498,0.8642619095037105
1757045331938860263,0.6057957081006844,-2.3256938774764766,-1.8427276192326936
1757045331963830096,0.619857271172326,-2.325535864195934,0.8252866393838474
1757045331987356475,0.6207643875584883,-2.3227497087385176,-1.8292412588859932
1757045332015815051,0.6094945652360559,-2.3143363110995403,0.8384680200883885
1757045332043094796,0.6104639505438345,-2.3114037682652167,-1.8510677338358974
1757045332070467788,0.6107403947727339,-2.310572961633025,0.8013241326300466
1757045332117616633,0.712107935223899,-2.2986540513878375,0.8180653800761633
1757045332140418878,0.7122265749370824,-2.2983244652012025,-1.8873983970309283
1757045332163499051,0.7125280884896648,-2.297485628365262,0.7999000363910689
1757045332190664164,0.7169032824529573,-2.283551275660445,-1.8886190600744577
1757045332214014301,0.7005357509828936,-2.2914678570386022,0.7986793737168263
1757045332246831059,0.6964668800405325,-2.3045349711911074,-1.8889242461757512
1757045332270966346,0.6797828601582319,-2.3133212677866903,0.8337893869354005
1757045332298260735,0.654258580687874,-2.305579290596124,-1.8888225324255785
1757045332322785752,0.6916294476407592,-2.2751157907875967,0.8686959701323609
1757045332348419698,0.6789517554896729,-2.271013685500315,-1.8890259643996643
1757045332373971327,0.6603556715233638,-2.286474484424356,0.8725730934869205
1757045332407936158,0.660737468142621,-2.285394184158434,-1.8507508114425875
1757045332437527005,0.6430559605448516,-2.2520837293692217,0.854509529148622
1757045332464448675,0.6430559605448516,-2.2520837293692217,-1.8507508114425875
1757045332488865065,0.6301791546476572,-2.2485228555160246,0.8547129683493182
1757045332516217241,0.613525726153584,-2.2573669974580866,-1.8505473722418913
1757045332536374010,0.6174303694295897,-2.244618212240019,0.8721662608692604
1757045332561946630,0.6174905880859236,-2.244458678829908,-1.8506490916965035
1757045332590350135,0.6048725562706643,-2.240201433390145,0.8893145280716723
1757045332618084526,0.6049423104130107,-2.240010937166715,-1.83350071382959
1757045332641917047,0.6048724872685678,-2.2402016172469037,0.871861333865759
1757045332665874959,0.579377299280132,-2.232384556160319,-1.8508522992453926
1757045332689812536,0.579377299280132,-2.232384556160319,0.871861333865759
1757045332713149986,0.579377299280132,-2.232384556160319,-1.8508522992453926
1757045332738844472,0.579377299280132,-2.232384556160319,0.871861333865759
1757045332757605914,0.5755982733590932,-2.2447746805803956,-1.85105572771419
1757045332778741464,0.566895554532288,-2.2277575402892,0.8365479061178895
1757045332804931030,0.5670813532553753,-2.227263599088328,-1.8166576724200816
1757045332826271356,0.5671433315330947,-2.2270989330636417,0.8535943584663706
1757045332854285736,0.5672673167275635,-2.2267696773049055,-1.7995095184488399
1757045332879107645,0.5793455810538166,-2.2329519898967147,0.8197547658573683
1757045332906842548,0.5626917049432867,-2.2417952426606766,-1.798239127309298
1757045332937799046,0.5794161589474649,-2.232758666324224,0.8021997495646573
1757045332966181673,0.5796096626673126,-2.232238597875225,-1.7986459671522255
1757045332990178773,0.5797326322889533,-2.2319118597644136,0.7842379160175916
1757045333018257338,0.5838432420473278,-2.2186472144837466,-1.7642477324099346
1757045333040871031,0.576069574964819,-2.243973472290274,0.7838312636739495
1757045333062403149,0.576069574964819,-2.243973472290274,-1.7818027367577152
1757045333087767082,0.5760001212321408,-2.2441671074395253,0.7839329762425216
1757045333109611502,0.5760695603270136,-2.2439735083913566,-1.7818027175488886
1757045333134795390,0.5851395363932215,-2.2599551946977803,0.818331051739186
1757045333156639025,0.5851981760768876,-2.2597924156754523,-1.7823112181611833
1757045333181485516,0.5981831264734838,-2.2630413978398147,0.8178226117908878
1757045333211996374,0.5944243501331439,-2.275296815938873,-1.765569768094437
1757045333234901851,0.594538557144626,-2.2749730440195224,0.817314089462613
1757045333265573701,0.5985918306620703,-2.2619110703547554,-1.7834299389242396
1757045333289578689,0.5946528342462105,-2.2746492833724865,0.817110646547313
1757045333316885264,0.6075045683937552,-2.27826719096296,-1.7836333456352058
1757045333343176688,0.6037295146622437,-2.290521764092584,0.8166021011594324
1757045333371438712,0.6023879547423592,-2.293030670024377,-1.7823890721103695
1757045333393138480,0.602627621529696,-2.292326952191439,0.8177447102266555
1757045333416508573,0.5986967027433201,-2.3050676602229494,-1.7653425827249478
1757045333443601480,0.6026829845824806,-2.292165945206114,0.8350962843040648
1757045333472977505,0.5987507698514656,-2.3049062533247766,-1.747991008647542
1757045333500554497,0.5859467933574056,-2.3011665628833025,0.8526512669335027
1757045333523550265,0.5862376851278326,-2.300293525408866,-1.7483978147958545
1757045333549119320,0.6108465904688338,-2.265854706077413,0.8694943976785474
1757045333575777445,0.5983513942528633,-2.2612404353396305,-1.783812861805874
1757045333603336712,0.6074469323960603,-2.2770587986737616,0.8860324191151676
1757045333630557570,0.5987890342494966,-2.260021159651693,-1.7670714238376952
1757045333658789587,0.5861141788856779,-2.255905518555509,0.8508207330181747
1757045333688947915,0.5989063193130058,-2.2596983597794176,-1.7672748619100958
1757045333714889036,0.5863597403344984,-2.2552250125112896,0.8504139048463415
1757045333742196809,0.577910100757467,-2.23765627228913,-1.7680885637854118
1757045333766831809,0.578303703546369,-2.2365855630904767,0.8318416608281787
1757045333786226146,0.5786885425826356,-2.235545193923094,-1.7693091364416276
1757045333809804897,0.579074119947057,-2.2345047806245764,0.8131677809202529
1757045333835266906,0.5756714792752928,-2.245604091242466,-1.7708349431706303
1757045333860159220,0.5673523578988406,-2.227806989770417,0.7941887228915157
1757045333888903447,0.5669217355063123,-2.229412021185679,-1.7878616258490396
1757045333923234846,0.5677812819464609,-2.2270927193699257,0.8288099084787213
1757045333947765737,0.5644229537274525,-2.238009382617389,-1.7727477604968307
1757045333969786621,0.56031045479686,-2.207119382939092,0.8269791015839267
1757045333992678061,0.5359987430912225,-2.196153096403042,-1.7926424394471177
1757045334018346114,0.5451889122172262,-2.2114559256235746,0.8245376615378675
1757045334044331673,0.5499512196083598,-2.1969441644242282,-1.7944734551534403
1757045334073540560,0.5507234239794514,-2.194935282810116,0.7874950045108022
1757045334096263401,0.5383905511829026,-2.1899141248154113,-1.796100915220073
1757045334121987124,0.5394532084631729,-2.187162396476625,0.8203670970313759
1757045334150714650,0.5400190707017161,-2.1857034840572327,-1.8158938231228383
1757045334183017934,0.5410686069149708,-2.183014091486927,0.8180277052531721
1757045334205750697,0.524866191098522,-2.18992601121856,-1.8357880783287825
